fips,county,state,lat,long,male,female,population
1001,Autauga ,Alabama,32.53492293,-86.64273014,26874,28326,55200
1003,Baldwin ,Alabama,30.72747877,-87.72256353,101188,106919,208107
1005,Barbour ,Alabama,31.86958144,-85.39320979,13697,12085,25782
1007,Bibb ,Alabama,32.99862823,-87.12647507,12152,10375,22527
1009,Blount ,Alabama,33.98086883,-86.5673804,28434,29211,57645
1011,Bullock ,Alabama,32.10052546,-85.71567933,5663,4689,10352
1013,Butler ,Alabama,31.75242916,-86.68027562,9368,10657,20025
1015,Calhoun ,Alabama,33.77141566,-85.82603922,55315,59783,115098
1017,Chambers ,Alabama,32.91434535,-85.39203022,16257,17569,33826
1019,Cherokee ,Alabama,34.17590465,-85.60380096,12820,13033,25853
1021,Chilton ,Alabama,32.84786731,-86.71879022,21672,22258,43930
1023,Choctaw ,Alabama,32.01977172,-88.26317981,6253,6822,13075
1025,Clarke ,Alabama,31.67667781,-87.83080862,11539,12848,24387
1027,Clay ,Alabama,33.2690236,-85.86057902,6464,6914,13378
1029,Cleburne ,Alabama,33.6745132,-85.51880933,7281,7657,14938
1031,Coffee ,Alabama,31.40264942,-85.98815268,25314,25974,51288
1033,Colbert ,Alabama,34.70047094,-87.80492781,26075,28420,54495
1035,Conecuh ,Alabama,31.42923693,-86.99366151,6037,6477,12514
1037,Coosa ,Alabama,32.93624304,-86.2476616,5501,5354,10855
1039,Covington ,Alabama,31.24849145,-86.45126684,18172,19179,37351
1041,Crenshaw ,Alabama,31.7315185,-86.31354751,6814,7051,13865
1043,Cullman ,Alabama,34.13194523,-86.86757572,40560,41753,82313
1045,Dale ,Alabama,31.43181019,-85.61100443,24234,25021,49255
1047,Dallas ,Alabama,32.32597926,-87.106469,18448,21581,40029
1049,DeKalb ,Alabama,34.45980033,-85.80410977,35304,35896,71200
1051,Elmore ,Alabama,32.5966475,-86.14915716,39450,41762,81212
1053,Escambia ,Alabama,31.12613475,-87.16158196,19067,18261,37328
1055,Etowah ,Alabama,34.04525667,-86.03476333,49651,53288,102939
1057,Fayette ,Alabama,33.72122226,-87.73885771,8170,8415,16585
1059,Franklin ,Alabama,34.4416923,-87.84373463,15602,15940,31542
1061,Geneva ,Alabama,31.09505485,-85.83909145,12971,13520,26491
1063,Greene ,Alabama,32.85314776,-87.95220353,3950,4476,8426
1065,Hale ,Alabama,32.76266346,-87.62914937,7019,7868,14887
1067,Henry ,Alabama,31.5147053,-85.24141341,8232,8892,17124
1069,Houston ,Alabama,31.15320088,-85.30247404,50029,54323,104352
1071,Jackson ,Alabama,34.77945558,-85.99935398,25536,26558,52094
1073,Jefferson ,Alabama,33.5543345,-86.89640831,312348,347544,659892
1075,Lamar ,Alabama,33.77913539,-88.09695813,6800,7133,13933
1077,Lauderdale ,Alabama,34.90140733,-87.65400965,44315,48270,92585
1079,Lawrence ,Alabama,34.52167796,-87.31099056,16003,17168,33171
1081,Lee ,Alabama,32.60113565,-85.35547859,78372,80915,159287
1083,Limestone ,Alabama,34.81010128,-86.98140593,46427,46625,93052
1085,Lowndes ,Alabama,32.1547457,-86.65010823,4830,5406,10236
1087,Macon ,Alabama,32.38593866,-85.6926558,8790,10264,19054
1089,Madison ,Alabama,34.76309047,-86.55022472,174665,182895,357560
1091,Marengo ,Alabama,32.24766549,-87.78953082,9446,10092,19538
1093,Marion ,Alabama,34.13655552,-87.88713525,14898,15067,29965
1095,Marshall ,Alabama,34.3669525,-86.30662785,46977,48168,95145
1097,Mobile ,Alabama,30.7872122,-88.20579886,197928,216731,414659
1099,Monroe ,Alabama,31.57087542,-87.36543633,10230,11282,21512
1101,Montgomery ,Alabama,32.2202638,-86.20761817,107354,119587,226941
1103,Morgan ,Alabama,34.45346831,-86.85292483,58660,60462,119122
1105,Perry ,Alabama,32.63846919,-87.29440144,4436,5050,9486
1107,Pickens ,Alabama,33.28079282,-88.08875081,9708,10590,20298
1109,Pike ,Alabama,31.80272314,-85.94091891,16027,17376,33403
1111,Randolph ,Alabama,33.29378477,-85.45912879,10989,11585,22574
1113,Russell ,Alabama,32.28839324,-85.18492487,28124,30089,58213
1115,St. Clair ,Alabama,33.71571864,-86.31461907,43755,43551,87306
1117,Shelby ,Alabama,33.2642776,-86.66066541,102478,108783,211261
1119,Sumter ,Alabama,32.59105735,-88.19884604,6014,6971,12985
1121,Talladega ,Alabama,33.38007938,-86.16588537,39156,41409,80565
1123,Tallapoosa ,Alabama,32.86235062,-85.79750899,19517,21119,40636
1125,Tuscaloosa ,Alabama,33.28956942,-87.52510915,99539,106674,206213
1127,Walker ,Alabama,33.80331124,-87.29732387,31506,32987,64493
1129,Washington ,Alabama,31.40762895,-88.20785731,8420,8223,16643
1131,Wilcox ,Alabama,31.98929675,-87.30819033,5134,5675,10809
1133,Winston ,Alabama,34.14919948,-87.37366307,11840,12035,23875
2013,Aleutians East Borough,Alaska,55.36650712,-161.9813303,1989,1436,3425
2016,Aleutians West Census Area,Alaska,52.79799632,-106.60606,3432,2318,5750
2020,Anchorage Municipality,Alaska,61.1508253,-149.1091175,151144,144968,296112
2050,Bethel Census Area,Alaska,60.9132308,-159.8180174,9381,8659,18040
2060,Bristol Bay Borough,Alaska,58.74386361,-156.6999775,526,364,890
2068,Denali Borough,Alaska,63.67164251,-150.0117159,1117,1115,2232
2070,Dillingham Census Area,Alaska,59.79906654,-158.2350895,2573,2402,4975
2090,Fairbanks North Star Borough,Alaska,64.80776533,-146.5654114,53846,45807,99653
2100,Haines Borough,Alaska,59.11987925,-135.4999528,1335,1183,2518
2105,Hoonah-Angoon Census Area,Alaska,58.28835669,-135.6429933,1095,1037,2132
2110,Juneau City and Borough,Alaska,58.45463055,-134.1739418,16517,15813,32330
2122,Kenai Peninsula Borough,Alaska,60.26541332,-151.5652439,30314,27906,58220
2130,Ketchikan Gateway Borough,Alaska,55.58516171,-130.9288093,7060,6744,13804
2150,Kodiak Island Borough,Alaska,57.67704281,-153.7805823,7281,6368,13649
2158,Kusilvak Census Area,Alaska,62.15502018,-163.3826214,4388,3810,8198
2164,Lake and Peninsula Borough,Alaska,58.65291903,-156.1868462,710,665,1375
2170,Matanuska-Susitna Borough,Alaska,62.31621989,-149.571413,53912,49552,103464
2180,Nome Census Area,Alaska,64.91109214,-164.0272117,5240,4685,9925
2185,North Slope Borough,Alaska,69.3121496,-153.4810429,6116,3681,9797
2188,Northwest Arctic Borough,Alaska,67.05300867,-159.7210158,4156,3578,7734
2195,Petersburg Borough,Alaska,57.11951011,-132.9344573,1649,1606,3255
2198,Prince of Wales-Hyder Census Area,Alaska,55.79972761,-133.0191991,3514,2960,6474
2220,Sitka City and Borough,Alaska,57.24007686,-135.3152511,4471,4267,8738
2230,Skagway Municipality,Alaska,59.56296556,-135.3362569,555,506,1061
2240,Southeast Fairbanks Census Area,Alaska,63.87632456,-143.2118133,3779,3097,6876
2261,Valdez-Cordova Census Area,Alaska,61.56195512,-144.468631,4898,4403,9301
2275,Wrangell City and Borough,Alaska,56.33171897,-132.022305,1302,1182,2484
2282,Yakutat City and Borough,Alaska,59.88889523,-140.3576873,369,320,689
2290,Yukon-Koyukuk Census Area,Alaska,65.50864462,-151.389632,2910,2505,5415
4001,Apache ,Arizona,35.39552647,-109.4888223,35240,36282,71522
4003,Cochise ,Arizona,31.87960804,-109.7511677,64135,62144,126279
4005,Coconino ,Arizona,35.83874598,-111.7704914,68918,71299,140217
4007,Gila ,Arizona,33.79975177,-110.8117101,26370,27030,53400
4009,Graham ,Arizona,32.93269987,-109.8873887,20330,17549,37879
4011,Greenlee ,Arizona,33.21523492,-109.2401282,5064,4440,9504
4012,La Paz ,Arizona,33.72924372,-113.9813242,10677,10024,20701
4013,Maricopa ,Arizona,33.34881594,-112.4912914,2104145,2149768,4253913
4015,Mohave ,Arizona,35.70409516,-113.7579527,104047,102017,206064
4017,Navajo ,Arizona,35.39965744,-110.3214014,54533,54172,108705
4019,Pima ,Arizona,32.0974273,-111.7899049,501879,517843,1019722
4021,Pinal ,Arizona,32.90439176,-111.3446708,219048,200673,419721
4023,Santa Cruz ,Arizona,31.52602521,-110.8465877,22285,24299,46584
4025,Yavapai ,Arizona,34.59990366,-112.5539047,109795,114850,224645
4027,Yuma ,Arizona,32.76937662,-113.9055556,106973,100856,207829
5001,Arkansas ,Arkansas,34.29080706,-91.37490973,8733,9391,18124
5003,Ashley ,Arkansas,33.19121135,-91.76845774,10013,10524,20537
5005,Baxter ,Arkansas,36.2872084,-92.33695012,19992,21227,41219
5007,Benton ,Arkansas,36.33872439,-94.25619693,128399,130581,258980
5009,Boone ,Arkansas,36.30859115,-93.09153442,18350,18938,37288
5011,Bradley ,Arkansas,33.46641993,-92.16239824,5214,5734,10948
5013,Calhoun ,Arkansas,33.55803127,-92.50304687,2607,2595,5202
5015,Carroll ,Arkansas,36.34101968,-93.5382382,13897,13990,27887
5017,Chicot ,Arkansas,33.26721483,-91.29398177,5266,5560,10826
5019,Clark ,Arkansas,34.05097067,-93.17636677,10628,11757,22385
5021,Clay ,Arkansas,36.36827123,-90.41755751,7414,7647,15061
5023,Cleburne ,Arkansas,35.53810444,-92.0267275,12472,12758,25230
5025,Cleveland ,Arkansas,33.89837312,-92.18518896,4138,4088,8226
5027,Columbia ,Arkansas,33.21429832,-93.22731371,11444,12448,23892
5029,Conway ,Arkansas,35.26224654,-92.70129383,10182,10724,20906
5031,Craighead ,Arkansas,35.83078059,-90.63283976,51528,54173,105701
5033,Crawford ,Arkansas,35.58908631,-94.24282113,30761,31711,62472
5035,Crittenden ,Arkansas,35.20794386,-90.30883835,23271,25742,49013
5037,Cross ,Arkansas,35.29571522,-90.77121409,8200,8798,16998
5039,Dallas ,Arkansas,33.96980985,-92.65444705,3618,3814,7432
5041,Desha ,Arkansas,33.83328451,-91.25398249,5623,6264,11887
5043,Drew ,Arkansas,33.5894538,-91.72001114,9033,9469,18502
5045,Faulkner ,Arkansas,35.14698117,-92.33204545,59911,62505,122416
5047,Franklin ,Arkansas,35.51232054,-93.89063726,8675,9105,17780
5049,Fulton ,Arkansas,36.3816574,-91.81822519,6048,6091,12139
5051,Garland ,Arkansas,34.57666778,-93.15041074,47182,51114,98296
5053,Grant ,Arkansas,34.29000488,-92.42360629,8870,9216,18086
5055,Greene ,Arkansas,36.11756921,-90.5589636,21912,22711,44623
5057,Hempstead ,Arkansas,33.73532332,-93.66847441,10494,11524,22018
5059,Hot Spring ,Arkansas,34.31762874,-92.94594016,17418,16102,33520
5061,Howard ,Arkansas,34.08890649,-93.99357395,6440,6949,13389
5063,Independence ,Arkansas,35.74157248,-91.56970871,18092,19172,37264
5065,Izard ,Arkansas,36.0948701,-91.91340553,7018,6541,13559
5067,Jackson ,Arkansas,35.59922211,-91.2145661,8512,8713,17225
5069,Jefferson ,Arkansas,34.26878206,-91.93151809,34906,35518,70424
5071,Johnson ,Arkansas,35.5700647,-93.45989301,12976,13315,26291
5073,Lafayette ,Arkansas,33.24094545,-93.60705581,3381,3534,6915
5075,Lawrence ,Arkansas,36.04122682,-91.10709583,8270,8399,16669
5077,Lee ,Arkansas,34.78065179,-90.78212191,5309,4089,9398
5079,Lincoln ,Arkansas,33.95744904,-91.73332986,8590,5105,13695
5081,Little River ,Arkansas,33.70051145,-94.23434658,6090,6327,12417
5083,Logan ,Arkansas,35.21527068,-93.71634187,10643,11114,21757
5085,Lonoke ,Arkansas,34.75425622,-91.8886733,35667,36539,72206
5087,Madison ,Arkansas,36.01095244,-93.72455118,8038,8038,16076
5089,Marion ,Arkansas,36.26838614,-92.68422483,7990,8448,16438
5091,Miller ,Arkansas,33.31209067,-93.89155271,21476,22283,43759
5093,Mississippi ,Arkansas,35.7638336,-90.05420095,20876,21955,42831
5095,Monroe ,Arkansas,34.67784528,-91.20390435,3316,3933,7249
5097,Montgomery ,Arkansas,34.53881077,-93.65952878,4440,4553,8993
5099,Nevada ,Arkansas,33.66396327,-93.30719906,4425,4015,8440
5101,Newton ,Arkansas,35.91997206,-93.21786865,3932,3916,7848
5103,Ouachita ,Arkansas,33.59335287,-92.88194023,11327,12779,24106
5105,Perry ,Arkansas,34.94736989,-92.93144274,5184,5138,10322
5107,Phillips ,Arkansas,34.42823806,-90.84806629,9006,10028,19034
5109,Pike ,Arkansas,34.16352177,-93.65632702,5346,5462,10808
5111,Poinsett ,Arkansas,35.57401479,-90.66297675,11734,12320,24054
5113,Polk ,Arkansas,34.4859135,-94.228094,9828,10335,20163
5115,Pope ,Arkansas,35.44762758,-93.03415222,31317,32327,63644
5117,Prairie ,Arkansas,34.82979854,-91.55279743,4120,4124,8244
5119,Pulaski ,Arkansas,34.76994017,-92.31178372,188496,204967,393463
5121,Randolph ,Arkansas,36.34145903,-91.02770853,8784,8819,17603
5123,St. Francis ,Arkansas,35.02200956,-90.74776577,14441,11853,26294
5125,Saline ,Arkansas,34.64659516,-92.67652323,58030,59979,118009
5127,Scott ,Arkansas,34.86077478,-94.06323826,5332,5110,10442
5129,Searcy ,Arkansas,35.91089957,-92.69950814,3981,3942,7923
5131,Sebastian ,Arkansas,35.19966033,-94.27417847,62274,65187,127461
5133,Sevier ,Arkansas,33.99717541,-94.2411776,8607,8586,17193
5135,Sharp ,Arkansas,36.16114163,-91.47985752,8335,8708,17043
5137,Stone ,Arkansas,35.85988028,-92.15670323,6209,6237,12446
5139,Union ,Arkansas,33.17130192,-92.59726944,19332,20400,39732
5141,Van Buren ,Arkansas,35.5806447,-92.5156838,8284,8400,16684
5143,Washington ,Arkansas,35.97906307,-94.21557553,114181,114348,228529
5145,White ,Arkansas,35.25627781,-91.7455496,38751,40053,78804
5147,Woodruff ,Arkansas,35.18630641,-91.24305628,3051,3609,6660
5149,Yell ,Arkansas,35.00261093,-93.41123285,10782,10791,21573
6001,Alameda ,California,37.64689323,-121.8888675,807171,836529,1643700
6003,Alpine ,California,38.59719677,-119.8206697,612,534,1146
6005,Amador ,California,38.44639149,-120.6510933,20302,17527,37829
6007,Butte ,California,39.66693534,-121.6006808,112513,114562,227075
6009,Calaveras ,California,38.20459548,-120.554128,22434,22801,45235
6011,Colusa ,California,39.17748403,-122.2369591,11124,10340,21464
6013,Contra Costa ,California,37.91912234,-121.9277882,553701,579546,1133247
6015,Del Norte ,California,41.7431349,-123.89724,14575,12849,27424
6017,El Dorado ,California,38.7787355,-120.5246574,93040,93621,186661
6019,Fresno ,California,36.75819764,-119.6493072,487936,490194,978130
6021,Glenn ,California,39.59820149,-122.391999,14171,13726,27897
6023,Humboldt ,California,40.69929754,-123.8756289,67666,68102,135768
6025,Imperial ,California,33.03951207,-115.3653512,92250,87966,180216
6027,Inyo ,California,36.51111376,-117.410748,9084,9001,18085
6029,Kern ,California,35.34286436,-118.7299164,452646,430407,883053
6031,Kings ,California,36.07534371,-119.8155507,82674,67401,150075
6033,Lake ,California,39.09961721,-122.7531899,31879,32269,64148
6035,Lassen ,California,40.6735891,-120.5943154,20671,10514,31185
6037,Los Angeles ,California,34.32074296,-118.22481,4976788,5121264,10098052
6039,Madera ,California,37.2179921,-119.7626704,74683,80330,155013
6041,Marin ,California,38.07338556,-122.7234156,127113,133182,260295
6043,Mariposa ,California,37.5815082,-119.9054261,8920,8620,17540
6045,Mendocino ,California,39.4402241,-123.3914726,43439,43983,87422
6047,Merced ,California,37.19188986,-120.7176523,135816,133259,269075
6049,Modoc ,California,41.58981656,-120.7250156,4613,4325,8938
6051,Mono ,California,37.93908943,-118.8868431,7341,6833,14174
6053,Monterey ,California,36.21715891,-121.2392006,220967,212245,433212
6055,Napa ,California,38.50648545,-122.3305181,70082,70448,140530
6057,Nevada ,California,39.30136306,-120.7684511,48889,50203,99092
6059,Orange ,California,33.70297218,-117.76107,1562429,1601753,3164182
6061,Placer ,California,39.06345957,-120.7175588,185511,194566,380077
6063,Plumas ,California,40.00463843,-120.8385457,9423,9276,18699
6065,Riverside ,California,33.74366319,-115.9938065,1186188,1197098,2383286
6067,Sacramento ,California,38.44931685,-121.3442534,737742,772281,1510023
6069,San Benito ,California,36.60569063,-121.0749693,29626,29790,59416
6071,San Bernardino ,California,34.84139921,-116.17841,1062472,1072941,2135413
6073,San Diego ,California,33.03413671,-116.7352929,1661931,1640902,3302833
6075,San Francisco ,California,37.75616437,-122.4430417,443970,426074,870044
6077,San Joaquin ,California,37.93475479,-121.2713924,364612,367600,732212
6079,San Luis Obispo ,California,35.38708294,-120.404516,142769,138686,281455
6081,San Mateo ,California,37.42289743,-122.3290165,377851,388084,765935
6083,Santa Barbara ,California,34.67287989,-120.0164734,222208,221530,443738
6085,Santa Clara ,California,37.23178503,-121.6951263,970469,951731,1922200
6087,Santa Cruz ,California,37.05618849,-122.0018496,135727,138038,273765
6089,Shasta ,California,40.76371327,-122.040499,87859,91226,179085
6091,Sierra ,California,39.5803262,-120.5159952,1542,1388,2930
6093,Siskiyou ,California,41.5926754,-122.5403513,21706,21834,43540
6095,Solano ,California,38.26997291,-121.9328519,217931,220599,438530
6097,Sonoma ,California,38.52828659,-122.8874079,245196,256121,501317
6099,Stanislaus ,California,37.55913408,-120.9976881,266844,272457,539301
6101,Sutter ,California,39.03457773,-121.6948438,47789,48083,95872
6103,Tehama ,California,40.12562627,-122.2340586,31504,31869,63373
6105,Trinity ,California,40.65069929,-123.1126397,6582,6280,12862
6107,Tulare ,California,36.22016552,-118.8004876,230255,230222,460477
6109,Tuolumne ,California,38.02758891,-119.954755,28102,25830,53932
6111,Ventura ,California,34.45650806,-119.0836332,419588,428524,848112
6113,Yolo ,California,38.68661923,-121.9015698,104375,110602,214977
6115,Yuba ,California,39.26900718,-121.3512643,38468,37025,75493
8001,Adams ,Colorado,39.87363084,-104.3377687,250704,246411,497115
8003,Alamosa ,Colorado,37.57293535,-105.7883668,8242,8202,16444
8005,Arapahoe ,Colorado,39.64975685,-104.3392298,314672,321999,636671
8007,Archuleta ,Colorado,37.19353673,-107.0482875,6546,6362,12908
8009,Baca ,Colorado,37.31919023,-102.5603746,1755,1808,3563
8011,Bent ,Colorado,37.95507595,-103.0717097,3790,2019,5809
8013,Boulder ,Colorado,40.09248855,-105.3577296,161355,159675,321030
8014,Broomfield ,Colorado,39.95410592,-105.0527106,32789,33331,66120
8015,Chaffee ,Colorado,38.74701251,-106.1941266,10268,8896,19164
8017,Cheyenne ,Colorado,38.82795187,-102.603508,964,1075,2039
8019,Clear Creek ,Colorado,39.68917973,-105.6444023,4816,4563,9379
8021,Conejos ,Colorado,37.20071264,-106.1916103,4082,4060,8142
8023,Costilla ,Colorado,37.27812432,-105.4282354,1941,1746,3687
8025,Crowley ,Colorado,38.32658633,-103.7844708,3526,2104,5630
8027,Custer ,Colorado,38.10869123,-105.3675281,2265,2375,4640
8029,Delta ,Colorado,38.86135915,-107.8628892,15235,15111,30346
8031,Denver ,Colorado,39.76213212,-104.8758698,347188,346229,693417
8033,Dolores ,Colorado,37.75171176,-108.5174003,989,852,1841
8035,Douglas ,Colorado,39.3297082,-104.9295593,163766,164848,328614
8037,Eagle ,Colorado,39.62784556,-106.6953664,28804,25553,54357
8039,Elbert ,Colorado,39.2865834,-104.135943,12721,12441,25162
8041,El Paso ,Colorado,38.83210344,-104.5254603,347478,340675,688153
8043,Fremont ,Colorado,38.47295815,-105.4396582,27324,19678,47002
8045,Garfield ,Colorado,39.59931537,-107.9040312,29779,28759,58538
8047,Gilpin ,Colorado,39.8575621,-105.5225161,3169,2755,5924
8049,Grand ,Colorado,40.10263077,-106.1183305,8129,6937,15066
8051,Gunnison ,Colorado,38.66676545,-107.0316224,8983,7554,16537
8053,Hinsdale ,Colorado,37.8212848,-107.3003019,406,472,878
8055,Huerfano ,Colorado,37.68467851,-104.9606113,3305,3278,6583
8057,Jackson ,Colorado,40.66644568,-106.34279,631,665,1296
8059,Jefferson ,Colorado,39.58643529,-105.250469,283919,286508,570427
8061,Kiowa ,Colorado,38.43266867,-102.7402903,750,699,1449
8063,Kit Carson ,Colorado,39.30549435,-102.6029457,4158,3477,7635
8065,Lake ,Colorado,39.20248013,-106.3447801,4176,3409,7585
8067,La Plata ,Colorado,37.28655414,-107.8433296,27790,27311,55101
8069,Larimer ,Colorado,40.66638617,-105.4611455,168615,169546,338161
8071,Las Animas ,Colorado,37.31578856,-104.0386423,7452,6727,14179
8073,Lincoln ,Colorado,38.98808785,-103.5139431,3471,2077,5548
8075,Logan ,Colorado,40.72467278,-103.1101244,11708,9981,21689
8077,Mesa ,Colorado,39.01830152,-108.4664424,74027,75971,149998
8079,Mineral ,Colorado,37.66894229,-106.9241219,402,421,823
8081,Moffat ,Colorado,40.61839473,-108.2074434,6698,6362,13060
8083,Montezuma ,Colorado,37.33856249,-108.5965771,12760,13149,25909
8085,Montrose ,Colorado,38.402183,-108.269338,20374,20894,41268
8087,Morgan ,Colorado,40.26264077,-103.8097165,14112,14145,28257
8089,Otero ,Colorado,37.90256806,-103.7165119,8872,9453,18325
8091,Ouray ,Colorado,38.15546514,-107.7692713,2312,2410,4722
8093,Park ,Colorado,39.11931309,-105.7171098,9172,8220,17392
8095,Phillips ,Colorado,40.59397332,-102.3576012,2295,2023,4318
8097,Pitkin ,Colorado,39.21708542,-106.9165986,9408,8501,17909
8099,Prowers ,Colorado,37.95519537,-102.3933597,6035,6017,12052
8101,Pueblo ,Colorado,38.17352289,-104.5127322,80962,83723,164685
8103,Rio Blanco ,Colorado,39.97985128,-108.2170523,3291,3174,6465
8105,Rio Grande ,Colorado,37.58251943,-106.3832299,5696,5655,11351
8107,Routt ,Colorado,40.48514361,-106.9912534,12915,11959,24874
8109,Saguache ,Colorado,38.08052661,-106.2815064,3182,3286,6468
8111,San Juan ,Colorado,37.7640285,-107.6761566,283,261,544
8113,San Miguel ,Colorado,38.00376523,-108.4057279,4215,3753,7968
8115,Sedgwick ,Colorado,40.87591672,-102.3518248,1162,1188,2350
8117,Summit ,Colorado,39.6341803,-106.116368,16684,13745,30429
8119,Teller ,Colorado,38.88215683,-105.1617789,12157,11956,24113
8121,Washington ,Colorado,39.97101752,-103.2012456,2510,2330,4840
8123,Weld ,Colorado,40.55483429,-104.3924615,148627,146496,295123
8125,Yuma ,Colorado,40.00293655,-102.4242485,5019,5050,10069
9001,Fairfield ,Connecticut,41.27079518,-73.38938077,459963,484385,944348
9003,Hartford ,Connecticut,41.80640592,-72.73287269,434650,460080,894730
9005,Litchfield ,Connecticut,41.79248073,-73.24533246,90447,92584,183031
9007,Middlesex ,Connecticut,41.46318767,-72.53514428,79676,83692,163368
9009,New Haven ,Connecticut,41.41047805,-72.93207762,414311,445028,859339
9011,New London ,Connecticut,41.48661392,-72.10147371,134703,134178,268881
9013,Tolland ,Connecticut,41.8550418,-72.33647702,75821,75448,151269
9015,Windham ,Connecticut,41.8300196,-71.98743898,57560,58978,116538
10001,Kent ,Delaware,39.08616893,-75.56842232,84271,90551,174822
10003,New Castle ,Delaware,39.57683344,-75.65269159,268870,286263,555133
10005,Sussex ,Delaware,38.66055293,-75.39003806,106429,113111,219540
11001,District of Columbia,District of Columbia,38.90473394,-77.01629384,324881,359617,684498
12001,Alachua ,Florida,29.67474972,-82.35771368,127298,135850,263148
12003,Baker ,Florida,30.33109792,-82.28462852,14753,13032,27785
12005,Bay ,Florida,30.26521549,-85.62024282,90768,91714,182482
12007,Bradford ,Florida,29.94994876,-82.16876767,14841,12138,26979
12009,Brevard ,Florida,28.29372186,-80.7322705,282023,294785,576808
12011,Broward ,Florida,26.15232238,-80.48712563,929712,979439,1909151
12013,Calhoun ,Florida,30.40602254,-85.19719429,8048,6396,14444
12015,Charlotte ,Florida,26.90548522,-81.91226117,86278,90676,176954
12017,Citrus ,Florida,28.84891085,-82.47939452,69376,73711,143087
12019,Clay ,Florida,29.98306336,-81.8578775,102225,105066,207291
12021,Collier ,Florida,26.11071565,-81.34757344,179336,184586,363922
12023,Columbia ,Florida,30.22424805,-82.62153929,35683,33422,69105
12027,DeSoto ,Florida,27.18636318,-81.80950448,20657,15742,36399
12029,Dixie ,Florida,29.6081916,-83.15880037,9218,7219,16437
12031,Duval ,Florida,30.33157316,-81.67084283,448163,476066,924229
12033,Escambia ,Florida,30.66892673,-87.362783,154520,157002,311522
12035,Flagler ,Florida,29.46142485,-81.31356839,51187,55952,107139
12037,Franklin ,Florida,29.87646472,-84.81402385,6714,5022,11736
12039,Gadsden ,Florida,30.57947808,-84.61362454,21785,24232,46017
12041,Gilchrist ,Florida,29.72583212,-82.80037638,9249,8366,17615
12043,Glades ,Florida,26.95643071,-81.18907378,7303,6060,13363
12045,Gulf ,Florida,29.95553379,-85.22659118,9586,6469,16055
12047,Hamilton ,Florida,30.49638882,-82.9479328,8281,5988,14269
12049,Hardee ,Florida,27.49270249,-81.80998298,14705,12523,27228
12051,Hendry ,Florida,26.55348333,-81.16585111,21437,18690,40127
12053,Hernando ,Florida,28.55363187,-82.42503829,87747,94949,182696
12055,Highlands ,Florida,27.34329434,-81.3410383,49727,52374,102101
12057,Hillsborough ,Florida,27.92907665,-82.30919543,673286,705597,1378883
12059,Holmes ,Florida,30.86792107,-85.81401731,10484,8946,19430
12061,Indian River ,Florida,27.69431171,-80.60624481,72290,78694,150984
12063,Jackson ,Florida,30.79542473,-85.21549244,26784,21688,48472
12065,Jefferson ,Florida,30.43748929,-83.89529238,7507,6598,14105
12067,Lafayette ,Florida,29.98550163,-83.18109169,5066,3678,8744
12069,Lake ,Florida,28.7615363,-81.71126372,162402,172960,335362
12071,Lee ,Florida,26.57778609,-81.83374252,351918,366761,718679
12073,Leon ,Florida,30.45804082,-84.27789669,136894,151208,288102
12075,Levy ,Florida,29.31842893,-82.74355312,19364,20597,39961
12077,Liberty ,Florida,30.24137449,-84.88289858,5110,3255,8365
12079,Madison ,Florida,30.4441189,-83.47012097,9829,8645,18474
12081,Manatee ,Florida,27.47190568,-82.31531846,180595,193258,373853
12083,Marion ,Florida,29.21020748,-82.05665151,167211,181160,348371
12085,Martin ,Florida,27.07752204,-80.43147132,78002,79579,157581
12086,Miami-Dade ,Florida,25.61495929,-80.56228896,1318627,1396889,2715516
12087,Monroe ,Florida,25.3156183,-81.1106363,39822,36503,76325
12089,Nassau ,Florida,30.61059899,-81.80161576,39956,40622,80578
12091,Okaloosa ,Florida,30.69128366,-86.59172167,101745,98992,200737
12093,Okeechobee ,Florida,27.38644235,-80.88863139,21866,18706,40572
12095,Orange ,Florida,28.51442465,-81.32351241,648446,672748,1321194
12097,Osceola ,Florida,28.06268562,-81.14947488,166820,171799,338619
12099,Palm Beach ,Florida,26.64759584,-80.46551002,701207,745070,1446277
12101,Pasco ,Florida,28.30909548,-82.39319538,248572,262021,510593
12103,Pinellas ,Florida,27.91960154,-82.72559904,459766,498109,957875
12105,Polk ,Florida,27.9488798,-81.69757667,327706,340965,668671
12107,Putnam ,Florida,29.60865249,-81.74430345,35841,36925,72766
12109,St. Johns ,Florida,29.90164112,-81.44066458,114660,120843,235503
12111,St. Lucie ,Florida,27.37725646,-80.47202647,149385,156206,305591
12113,Santa Rosa ,Florida,30.70044159,-87.02197834,87175,83267,170442
12115,Sarasota ,Florida,27.18446789,-82.33150444,196433,215711,412144
12117,Seminole ,Florida,28.71697276,-81.2363175,219935,235151,455086
12119,Sumter ,Florida,28.704756,-82.08097332,60725,60274,120999
12121,Suwannee ,Florida,30.19560506,-82.99149468,22230,21694,43924
12123,Taylor ,Florida,30.04701274,-83.60352701,12414,9684,22098
12125,Union ,Florida,30.04385497,-82.37143421,9919,5320,15239
12127,Volusia ,Florida,29.05842069,-81.18192065,257275,270359,527634
12129,Wakulla ,Florida,30.16731986,-84.40067671,17490,14387,31877
12131,Walton ,Florida,30.64358166,-86.16965568,33317,32541,65858
12133,Washington ,Florida,30.61060117,-85.66533264,13231,11335,24566
13001,Appling ,Georgia,31.74922311,-82.28889645,9353,9101,18454
13003,Atkinson ,Georgia,31.29713318,-82.88007087,4208,4057,8265
13005,Bacon ,Georgia,31.55368009,-82.45269851,5564,5664,11228
13007,Baker ,Georgia,31.32614478,-84.44471523,1521,1668,3189
13009,Baldwin ,Georgia,33.06926621,-83.2495557,22759,22527,45286
13011,Banks ,Georgia,34.35415051,-83.4973769,9281,9229,18510
13013,Barrow ,Georgia,33.99318851,-83.71273177,37771,39116,76887
13015,Bartow ,Georgia,34.23786493,-84.84049136,51332,52288,103620
13017,Ben Hill ,Georgia,31.75979097,-83.22050663,8047,9107,17154
13019,Berrien ,Georgia,31.27595307,-83.22963868,9299,9726,19025
13021,Bibb ,Georgia,32.80649504,-83.69740491,72065,81425,153490
13023,Bleckley ,Georgia,32.43444534,-83.32781353,5937,6838,12775
13025,Brantley ,Georgia,31.19687588,-81.98190369,9103,9458,18561
13027,Brooks ,Georgia,30.84198089,-83.58020128,7608,8014,15622
13029,Bryan ,Georgia,32.01447125,-81.44363801,17786,18099,35885
13031,Bulloch ,Georgia,32.3968077,-81.7431811,36777,38005,74782
13033,Burke ,Georgia,33.0610815,-82.00090103,10697,11853,22550
13035,Butts ,Georgia,33.28788112,-83.95718513,12661,11089,23750
13037,Calhoun ,Georgia,31.52922229,-84.62453275,3875,2553,6428
13039,Camden ,Georgia,30.93056291,-81.66997639,27019,25695,52714
13043,Candler ,Georgia,32.40344187,-82.07366027,5363,5464,10827
13045,Carroll ,Georgia,33.58278636,-85.07976835,56448,59574,116022
13047,Catoosa ,Georgia,34.9036289,-85.13824955,31991,34308,66299
13049,Charlton ,Georgia,30.78172967,-82.13793184,7522,5461,12983
13051,Chatham ,Georgia,32.00421553,-81.13283525,138403,148646,287049
13053,Chattahoochee ,Georgia,32.34698433,-84.7870209,7172,3595,10767
13055,Chattooga ,Georgia,34.47500026,-85.34534078,12865,11952,24817
13057,Cherokee ,Georgia,34.2439499,-84.47619175,119270,122640,241910
13059,Clarke ,Georgia,33.95117829,-83.36733045,59248,65354,124602
13061,Clay ,Georgia,31.62623788,-84.98008739,1473,1528,3001
13063,Clayton ,Georgia,33.54190471,-84.35764423,130748,147918,278666
13065,Clinch ,Georgia,30.9149953,-82.70625716,3427,3316,6743
13067,Cobb ,Georgia,33.9414814,-84.57669232,360270,384787,745057
13069,Coffee ,Georgia,31.54928577,-82.84917705,22088,20873,42961
13071,Colquitt ,Georgia,31.18837686,-83.76879849,22554,23052,45606
13073,Columbia ,Georgia,33.54411701,-82.26403887,71970,75325,147295
13075,Cook ,Georgia,31.15399291,-83.43046305,8348,8836,17184
13077,Coweta ,Georgia,33.35346426,-84.76335813,68430,72086,140516
13079,Crawford ,Georgia,32.71451075,-83.9863297,6299,6045,12344
13081,Crisp ,Georgia,31.92291153,-83.76805458,10849,11997,22846
13083,Dade ,Georgia,34.85455198,-85.50451949,7932,8295,16227
13085,Dawson ,Georgia,34.44429665,-84.17062681,11774,12087,23861
13087,Decatur ,Georgia,30.87834851,-84.57904679,12907,13926,26833
13089,DeKalb ,Georgia,33.77153603,-84.22642599,351871,391316,743187
13091,Dodge ,Georgia,32.17220686,-83.16840542,10972,9947,20919
13093,Dooly ,Georgia,32.15718704,-83.79879578,7529,6376,13905
13095,Dougherty ,Georgia,31.53346418,-84.21638639,42144,48905,91049
13097,Douglas ,Georgia,33.70184254,-84.76795535,67726,74114,141840
13099,Early ,Georgia,31.32282807,-84.90365602,4791,5557,10348
13101,Echols ,Georgia,30.7100504,-82.89396144,1973,2021,3994
13103,Effingham ,Georgia,32.36728627,-81.34135178,29215,29474,58689
13105,Elbert ,Georgia,34.11679504,-82.84014598,9188,10024,19212
13107,Emanuel ,Georgia,32.58973973,-82.30171317,11105,11394,22499
13109,Evans ,Georgia,32.15676456,-81.88688163,5303,5424,10727
13111,Fannin ,Georgia,34.86408399,-84.31983387,12086,12839,24925
13113,Fayette ,Georgia,33.41395332,-84.49418416,54055,57314,111369
13115,Floyd ,Georgia,34.26318326,-85.21425983,46810,50014,96824
13117,Forsyth ,Georgia,34.22554325,-84.12502041,109258,110622,219880
13119,Franklin ,Georgia,34.37544017,-83.22915634,10853,11661,22514
13121,Fulton ,Georgia,33.79028194,-84.46699086,495087,526815,1021902
13123,Gilmer ,Georgia,34.69116301,-84.45562504,15079,14843,29922
13125,Glascock ,Georgia,33.22928289,-82.61070062,1438,1571,3009
13127,Glynn ,Georgia,31.23089649,-81.54071677,39419,44555,83974
13129,Gordon ,Georgia,34.50336057,-84.87570724,28001,28789,56790
13131,Grady ,Georgia,30.87466591,-84.23444072,12176,12750,24926
13133,Greene ,Georgia,33.57883025,-83.1666706,8299,8677,16976
13135,Gwinnett ,Georgia,33.96172854,-84.0235947,441051,461247,902298
13137,Habersham ,Georgia,34.63102797,-83.53112369,20962,23327,44289
13139,Hall ,Georgia,34.31690076,-83.81966681,97518,98443,195961
13141,Hancock ,Georgia,33.27045137,-83.00067259,5193,3342,8535
13143,Haralson ,Georgia,33.79421744,-85.21101885,14041,14915,28956
13145,Harris ,Georgia,32.7360391,-84.90889194,16832,16758,33590
13147,Hart ,Georgia,34.35083482,-82.96422076,12558,13073,25631
13149,Heard ,Georgia,33.29703942,-85.12833608,5747,5930,11677
13151,Henry ,Georgia,33.45300248,-84.15420612,105759,115548,221307
13153,Houston ,Georgia,32.45900725,-83.66622618,73756,77926,151682
13155,Irwin ,Georgia,31.60221364,-83.27635387,4758,4510,9268
13157,Jackson ,Georgia,34.13388571,-83.56636587,32445,33310,65755
13159,Jasper ,Georgia,33.31639587,-83.68805768,6682,7102,13784
13161,Jeff Davis ,Georgia,31.80559289,-82.63683939,7408,7583,14991
13163,Jefferson ,Georgia,33.05486535,-82.41817747,7605,8167,15772
13165,Jenkins ,Georgia,32.79244727,-81.96354954,4055,4772,8827
13167,Johnson ,Georgia,32.70146072,-82.66007951,5318,4412,9730
13169,Jones ,Georgia,33.02512491,-83.5604948,13874,14674,28548
13171,Lamar ,Georgia,33.07653569,-84.13947124,8959,9554,18513
13173,Lanier ,Georgia,31.03787301,-83.06275656,5183,5183,10366
13175,Laurens ,Georgia,32.46365199,-82.92223334,22497,24921,47418
13177,Lee ,Georgia,31.77955418,-84.1411601,14674,14674,29348
13179,Liberty ,Georgia,31.82809043,-81.49472957,31550,30558,62108
13181,Lincoln ,Georgia,33.79363681,-82.45114028,3683,4116,7799
13183,Long ,Georgia,31.7525552,-81.74569517,8872,9284,18156
13185,Lowndes ,Georgia,30.83381348,-83.26772968,55959,58623,114582
13187,Lumpkin ,Georgia,34.57218744,-84.00267573,15551,16400,31951
13189,McDuffie ,Georgia,33.48286164,-82.48136662,9999,11499,21498
13191,McIntosh ,Georgia,31.49665949,-81.40846876,7036,7084,14120
13193,Macon ,Georgia,32.35838315,-84.04249465,7342,6138,13480
13195,Madison ,Georgia,34.12778417,-83.20903989,14508,14392,28900
13197,Marion ,Georgia,32.35339325,-84.52466883,4203,4281,8484
13199,Meriwether ,Georgia,33.04066422,-84.68831071,10221,10892,21113
13201,Miller ,Georgia,31.16400523,-84.73078383,2832,3004,5836
13205,Mitchell ,Georgia,31.22532031,-84.19427547,11683,10749,22432
13207,Monroe ,Georgia,33.01392415,-83.91865755,13600,13410,27010
13209,Montgomery ,Georgia,32.17339368,-82.53477358,4633,4403,9036
13211,Morgan ,Georgia,33.5908033,-83.49237353,8783,9452,18235
13213,Murray ,Georgia,34.78842922,-84.74806874,19522,20035,39557
13215,Muscogee ,Georgia,32.51002371,-84.87706039,96279,100391,196670
13217,Newton ,Georgia,33.55503916,-83.85019177,50598,55899,106497
13219,Oconee ,Georgia,33.8349652,-83.43710308,18164,18853,37017
13221,Oglethorpe ,Georgia,33.88066819,-83.08070772,7396,7388,14784
13223,Paulding ,Georgia,33.9205335,-84.86729516,76195,79645,155840
13225,Peach ,Georgia,32.5687555,-83.82689023,12952,14014,26966
13227,Pickens ,Georgia,34.46432656,-84.46555469,15233,15599,30832
13229,Pierce ,Georgia,31.35876961,-82.21276281,9639,9525,19164
13231,Pike ,Georgia,33.09228331,-84.38925957,8876,9206,18082
13233,Polk ,Georgia,34.00179086,-85.18814291,20415,21206,41621
13235,Pulaski ,Georgia,32.23229646,-83.47596447,5075,6220,11295
13237,Putnam ,Georgia,33.32176673,-83.37279374,10402,11101,21503
13239,Quitman ,Georgia,31.86734739,-85.01877003,1081,1195,2276
13241,Rabun ,Georgia,34.88173556,-83.40208022,8107,8350,16457
13243,Randolph ,Georgia,31.76265515,-84.75418864,3493,3594,7087
13245,Richmond ,Georgia,33.35959195,-82.0735036,97272,104191,201463
13247,Rockdale ,Georgia,33.6542507,-84.02659007,41944,47067,89011
13249,Schley ,Georgia,32.26166256,-84.31475698,2546,2665,5211
13251,Screven ,Georgia,32.75060543,-81.61194171,6804,7186,13990
13253,Seminole ,Georgia,30.93878566,-84.86883881,4027,4410,8437
13255,Spalding ,Georgia,33.26088685,-84.28409469,31395,33324,64719
13257,Stephens ,Georgia,34.553942,-83.29347238,11765,13911,25676
13259,Stewart ,Georgia,32.07848971,-84.83521705,3894,2148,6042
13261,Sumter ,Georgia,32.03994282,-84.19699392,14359,15993,30352
13263,Talbot ,Georgia,32.69949851,-84.53300952,3032,3346,6378
13265,Taliaferro ,Georgia,33.56613476,-82.87877142,847,818,1665
13267,Tattnall ,Georgia,32.04579765,-82.05812943,14888,10465,25353
13269,Taylor ,Georgia,32.5554764,-84.25047428,3946,4247,8193
13271,Telfair ,Georgia,31.92980587,-82.93901137,9346,6769,16115
13273,Terrell ,Georgia,31.77699791,-84.43696998,4228,4631,8859
13275,Thomas ,Georgia,30.86376393,-83.91932776,21219,23511,44730
13277,Tift ,Georgia,31.45742933,-83.52660088,19509,21001,40510
13279,Toombs ,Georgia,32.12161158,-82.33121596,12491,14557,27048
13281,Towns ,Georgia,34.91671068,-83.73730603,5334,6083,11417
13283,Treutlen ,Georgia,32.4038748,-82.5672882,3573,3204,6777
13285,Troup ,Georgia,33.03353963,-85.02836515,33387,36387,69774
13287,Turner ,Georgia,31.71638192,-83.62409158,3843,4119,7962
13289,Twiggs ,Georgia,32.66720049,-83.42707722,4068,4216,8284
13291,Union ,Georgia,34.83408735,-83.99071663,11048,11727,22775
13293,Upson ,Georgia,32.8812748,-84.29934918,12503,13713,26216
13295,Walker ,Georgia,34.73564649,-85.30099086,34082,34742,68824
13297,Walton ,Georgia,33.78155675,-83.73386981,43775,46357,90132
13299,Ware ,Georgia,31.05378855,-82.42371808,17753,17846,35599
13301,Warren ,Georgia,33.40894817,-82.67675069,2475,2871,5346
13303,Washington ,Georgia,32.96953472,-82.79593023,10361,10100,20461
13305,Wayne ,Georgia,31.55144752,-81.91672491,15051,14716,29767
13307,Webster ,Georgia,32.04664019,-84.55104518,1254,1359,2613
13309,Wheeler ,Georgia,32.11705424,-82.72458014,5007,2932,7939
13311,White ,Georgia,34.64641039,-83.74710566,14128,14800,28928
13313,Whitfield ,Georgia,34.80561127,-84.96720773,51525,52324,103849
13315,Wilcox ,Georgia,31.97289724,-83.43234538,5242,3604,8846
13317,Wilkes ,Georgia,33.78194965,-82.74319598,4770,5114,9884
13319,Wilkinson ,Georgia,32.80238192,-83.17123808,4349,4729,9078
13321,Worth ,Georgia,31.55149984,-83.85089246,10040,10616,20656
15001,Hawaii ,Hawaii,19.59872083,-155.5184935,98276,99382,197658
15003,Honolulu ,Hawaii,21.50078536,-158.1053342,497646,489992,987638
15005,Kalawao ,Hawaii,21.17088724,-156.9475293,38,37,75
15007,Kauai ,Hawaii,22.03962537,-159.5963488,35375,36002,71377
15009,Maui ,Hawaii,20.85964011,-156.5648463,82437,82844,165281
16001,Ada ,Idaho,43.45109241,-116.2411609,223367,222685,446052
16003,Adams ,Idaho,44.88959322,-116.4538254,2093,1926,4019
16005,Bannock ,Idaho,42.66848737,-112.2246106,42300,42765,85065
16007,Bear Lake ,Idaho,42.28478415,-111.329687,2898,3064,5962
16009,Benewah ,Idaho,47.21755258,-116.6587089,4607,4479,9086
16011,Bingham ,Idaho,43.21655175,-112.3980933,22746,22805,45551
16013,Blaine ,Idaho,43.41194442,-113.9801748,11251,10743,21994
16015,Boise ,Idaho,43.98913017,-115.7303632,3780,3383,7163
16017,Bonner ,Idaho,48.3000432,-116.6010756,21366,21345,42711
16019,Bonneville ,Idaho,43.38773727,-111.6147913,56237,56160,112397
16021,Boundary ,Idaho,48.76686857,-116.4628743,5735,5814,11549
16023,Butte ,Idaho,43.72291219,-113.1720674,1342,1260,2602
16025,Camas ,Idaho,43.46332937,-114.8057674,433,453,886
16027,Canyon ,Idaho,43.62513687,-116.7093126,104902,107328,212230
16029,Caribou ,Idaho,42.77049662,-111.5622598,3543,3375,6918
16031,Cassia ,Idaho,42.28388223,-113.6001008,12039,11576,23615
16033,Clark ,Idaho,44.2839185,-112.3512464,570,507,1077
16035,Clearwater ,Idaho,46.67364382,-115.6566841,4790,3850,8640
16037,Custer ,Idaho,44.24112591,-114.2817281,2165,1976,4141
16039,Elmore ,Idaho,43.35395514,-115.4692972,13858,12575,26433
16041,Franklin ,Idaho,42.18109938,-111.8131968,6787,6492,13279
16043,Fremont ,Idaho,44.22879173,-111.4819403,6766,6199,12965
16045,Gem ,Idaho,44.06154619,-116.3975166,8354,8698,17052
16047,Gooding ,Idaho,42.97102592,-114.8115383,7911,7258,15169
16049,Idaho ,Idaho,45.84406963,-115.4675088,8537,7800,16337
16051,Jefferson ,Idaho,43.82015472,-112.3113082,14295,13674,27969
16053,Jerome ,Idaho,42.68987596,-114.2639256,11801,11630,23431
16055,Kootenai ,Idaho,47.67437463,-116.7018262,75890,77715,153605
16057,Latah ,Idaho,46.81617004,-116.7116819,19894,19345,39239
16059,Lemhi ,Idaho,44.94325575,-113.933252,3948,3850,7798
16061,Lewis ,Idaho,46.23700097,-116.4263151,1911,1934,3845
16063,Lincoln ,Idaho,43.0023727,-114.1382739,2766,2555,5321
16065,Madison ,Idaho,43.78414736,-111.6592342,19529,19176,38705
16067,Minidoka ,Idaho,42.85429247,-113.6374701,10377,10238,20615
16069,Nez Perce ,Idaho,46.32681553,-116.7502431,19758,20397,40155
16071,Oneida ,Idaho,42.19497441,-112.5393663,2083,2243,4326
16073,Owyhee ,Idaho,42.58149964,-116.1699154,5874,5581,11455
16075,Payette ,Idaho,44.006757,-116.7608211,11470,11571,23041
16077,Power ,Idaho,42.69364441,-112.8406693,3781,3932,7713
16079,Shoshone ,Idaho,47.35294081,-115.8923629,6267,6259,12526
16081,Teton ,Idaho,43.7594455,-111.2076218,5887,5193,11080
16083,Twin Falls ,Idaho,42.35596962,-114.6671507,41204,42462,83666
16085,Valley ,Idaho,44.76660706,-115.5663374,5486,4915,10401
16087,Washington ,Idaho,44.45242382,-116.7847363,4966,5059,10025
17001,Adams ,Illinois,39.98787833,-91.18855699,32481,33946,66427
17003,Alexander ,Illinois,37.19151912,-89.33756197,3104,3428,6532
17005,Bond ,Illinois,38.88683305,-89.43554637,8587,8125,16712
17007,Boone ,Illinois,42.32307877,-88.82338303,26830,26776,53606
17009,Brown ,Illinois,39.96181052,-90.75041256,4238,2437,6675
17011,Bureau ,Illinois,41.40412583,-89.52866709,16437,16944,33381
17013,Calhoun ,Illinois,39.16924303,-90.66753074,2435,2423,4858
17015,Carroll ,Illinois,42.06868734,-89.93439025,7229,7333,14562
17017,Cass ,Illinois,39.97354524,-90.2474008,6353,6312,12665
17019,Champaign ,Illinois,40.14009651,-88.19916001,104513,104935,209448
17021,Christian ,Illinois,39.54583199,-89.27725285,16818,16413,33231
17023,Clark ,Illinois,39.33359041,-87.78771906,7824,8012,15836
17025,Clay ,Illinois,38.75416039,-88.49022977,6586,6752,13338
17027,Clinton ,Illinois,38.60645251,-89.42248618,19551,18077,37628
17029,Coles ,Illinois,39.52027962,-88.22179644,24999,26737,51736
17031,Cook ,Illinois,41.84012633,-87.81683062,2534640,2689079,5223719
17033,Crawford ,Illinois,39.00269711,-87.75956141,9910,9178,19088
17035,Cumberland ,Illinois,39.27334187,-88.24018523,5455,5410,10865
17037,DeKalb ,Illinois,41.89352938,-88.77031406,51580,52620,104200
17039,De Witt ,Illinois,40.17461502,-88.90407555,8015,8027,16042
17041,Douglas ,Illinois,39.76945694,-88.21737067,9748,9966,19714
17043,DuPage ,Illinois,41.85195268,-88.08559583,457178,474565,931743
17045,Edgar ,Illinois,39.67855189,-87.74559247,8617,8922,17539
17047,Edwards ,Illinois,38.41654373,-88.05327845,3231,3276,6507
17049,Effingham ,Illinois,39.05979761,-88.5898601,16971,17203,34174
17051,Fayette ,Illinois,39.00018312,-89.02413055,11580,10144,21724
17053,Ford ,Illinois,40.59716807,-88.22329551,6616,6782,13398
17055,Franklin ,Illinois,37.99227779,-88.92413726,19285,19842,39127
17057,Fulton ,Illinois,40.4727878,-90.20746963,18496,16922,35418
17059,Gallatin ,Illinois,37.76274364,-88.23044404,2472,2685,5157
17061,Greene ,Illinois,39.35621703,-90.39046153,6668,6550,13218
17063,Grundy ,Illinois,41.28511112,-88.41846874,25241,25268,50509
17065,Hamilton ,Illinois,38.08154031,-88.53910016,4018,4203,8221
17067,Hancock ,Illinois,40.40374092,-91.16474814,9008,9104,18112
17069,Hardin ,Illinois,37.51821568,-88.26687347,1976,2033,4009
17071,Henderson ,Illinois,40.81803658,-90.92510329,3369,3515,6884
17073,Henry ,Illinois,41.35313699,-90.13143102,24536,24928,49464
17075,Iroquois ,Illinois,40.74724324,-87.82433851,13751,14418,28169
17077,Jackson ,Illinois,37.78514443,-89.38212877,28989,29562,58551
17079,Jasper ,Illinois,39.01006379,-88.15384992,4809,4789,9598
17081,Jefferson ,Illinois,38.30051395,-88.92401752,19567,18602,38169
17083,Jersey ,Illinois,39.08568408,-90.35668524,10841,11228,22069
17085,Jo Daviess ,Illinois,42.36575465,-90.21249872,10956,10878,21834
17087,Johnson ,Illinois,37.45962932,-88.88092569,7015,5587,12602
17089,Kane ,Illinois,41.93884403,-88.4286391,264211,266628,530839
17091,Kankakee ,Illinois,41.13771026,-87.86183129,54615,56446,111061
17093,Kendall ,Illinois,41.59056548,-88.42879692,61761,62865,124626
17095,Knox ,Illinois,40.93183774,-90.21323705,25743,25256,50999
17097,Lake ,Illinois,42.32333994,-88.00365403,351343,352276,703619
17099,LaSalle ,Illinois,41.34399455,-88.88594498,55400,55001,110401
17101,Lawrence ,Illinois,38.7199557,-87.72678065,8919,7270,16189
17103,Lee ,Illinois,41.74619394,-89.30038807,18326,16201,34527
17105,Livingston ,Illinois,40.8915709,-88.55771847,18614,17710,36324
17107,Logan ,Illinois,40.12455659,-89.36753852,14183,15024,29207
17109,McDonough ,Illinois,40.45619404,-90.67791395,15009,15866,30875
17111,McHenry ,Illinois,42.32442428,-88.45233584,153382,154407,307789
17113,McLean ,Illinois,40.49087527,-88.84732725,84245,88974,173219
17115,Macon ,Illinois,39.85998989,-88.96155998,51062,55450,106512
17117,Macoupin ,Illinois,39.26100417,-89.92443171,22602,23117,45719
17119,Madison ,Illinois,38.82986718,-89.90513715,129718,135952,265670
17121,Marion ,Illinois,38.64959343,-88.91898307,18726,19358,38084
17123,Marshall ,Illinois,41.03315746,-89.3447805,5874,5920,11794
17125,Mason ,Illinois,40.23963203,-89.91683128,6838,6940,13778
17127,Massac ,Illinois,37.21896984,-88.70772194,6794,7636,14430
17129,Menard ,Illinois,40.02739238,-89.80219185,6043,6324,12367
17131,Mercer ,Illinois,41.2053391,-90.74144592,7798,7895,15693
17133,Monroe ,Illinois,38.27845838,-90.17728333,16691,17245,33936
17135,Montgomery ,Illinois,39.23103312,-89.47888818,15145,13864,29009
17137,Morgan ,Illinois,39.71555614,-90.20146646,17298,17128,34426
17139,Moultrie ,Illinois,39.64147354,-88.61929702,7172,7531,14703
17141,Ogle ,Illinois,42.0426469,-89.32064358,25614,25714,51328
17143,Peoria ,Illinois,40.78804569,-89.75996274,89387,95076,184463
17145,Perry ,Illinois,38.08375245,-89.3670021,11767,9617,21384
17147,Piatt ,Illinois,40.01034007,-88.59110643,8080,8347,16427
17149,Pike ,Illinois,39.62250378,-90.88629694,7815,7939,15754
17151,Pope ,Illinois,37.41269436,-88.56152357,2349,1900,4249
17153,Pulaski ,Illinois,37.2228826,-89.12658246,2747,2864,5611
17155,Putnam ,Illinois,41.20447692,-89.28576115,2959,2787,5746
17157,Randolph ,Illinois,38.05210441,-89.82521231,18019,14527,32546
17159,Richland ,Illinois,38.71241556,-88.085109,7809,8072,15881
17161,Rock Island ,Illinois,41.4673202,-90.56737502,71596,73679,145275
17163,St. Clair ,Illinois,38.47033003,-89.92838112,127237,136226,263463
17165,Saline ,Illinois,37.75317245,-88.54075228,11962,12269,24231
17167,Sangamon ,Illinois,39.75816618,-89.6588769,94876,102785,197661
17169,Schuyler ,Illinois,40.15802995,-90.61507354,3701,3363,7064
17171,Scott ,Illinois,39.64412403,-90.47470013,2460,2587,5047
17173,Shelby ,Illinois,39.39113855,-88.80553886,10791,11041,21832
17175,Stark ,Illinois,41.09333903,-89.79747276,2716,2784,5500
17177,Stephenson ,Illinois,42.35172178,-89.66236402,21986,23447,45433
17179,Tazewell ,Illinois,40.50752986,-89.51341811,65987,67865,133852
17181,Union ,Illinois,37.47123279,-89.25511205,8592,8535,17127
17183,Vermilion ,Illinois,40.18341644,-87.73281471,38967,39440,78407
17185,Wabash ,Illinois,38.44604921,-87.84430347,5666,5907,11573
17187,Warren ,Illinois,40.84881676,-90.61501039,8353,8985,17338
17189,Washington ,Illinois,38.35216945,-89.41047005,7108,7047,14155
17191,Wayne ,Illinois,38.42957655,-88.42556024,8141,8346,16487
17193,White ,Illinois,38.08747726,-88.17955519,6882,7143,14025
17195,Whiteside ,Illinois,41.75627873,-89.91409401,27799,28597,56396
17197,Will ,Illinois,41.4450427,-87.97864242,341816,346881,688697
17199,Williamson ,Illinois,37.73025419,-88.92991759,33607,33692,67299
17201,Winnebago ,Illinois,42.33625892,-89.16086011,139748,146426,286174
17203,Woodford ,Illinois,40.7882182,-89.21112229,19343,19474,38817
18001,Adams ,Indiana,40.74565523,-84.93661598,17561,17634,35195
18003,Allen ,Indiana,41.09088453,-85.06657404,180669,189347,370016
18005,Bartholomew ,Indiana,39.20595128,-85.89759073,41150,40743,81893
18007,Benton ,Indiana,40.60625371,-87.31093166,4326,4341,8667
18009,Blackford ,Indiana,40.47363682,-85.32482248,6037,6092,12129
18011,Boone ,Indiana,40.05079934,-86.46870625,31750,32571,64321
18013,Brown ,Indiana,39.19623154,-86.22737678,7441,7593,15034
18015,Carroll ,Indiana,40.58284721,-86.56349722,10034,9960,19994
18017,Cass ,Indiana,40.76153987,-86.34598335,19082,19002,38084
18019,Clark ,Indiana,38.47717759,-85.70729854,56359,59343,115702
18021,Clay ,Indiana,39.39279543,-87.11576459,12935,13333,26268
18023,Clinton ,Indiana,40.30169518,-86.47514275,15986,16315,32301
18025,Crawford ,Indiana,38.29238157,-86.45172411,5367,5214,10581
18027,Daviess ,Indiana,38.70240607,-87.0720446,16634,16303,32937
18029,Dearborn ,Indiana,39.14517193,-84.97324274,24764,24737,49501
18031,Decatur ,Indiana,39.30700147,-85.50110908,13202,13350,26552
18033,DeKalb ,Indiana,41.39757021,-84.99905942,21307,21397,42704
18035,Delaware ,Indiana,40.22754556,-85.39689984,55743,59873,115616
18037,Dubois ,Indiana,38.36427304,-86.87981143,21048,21370,42418
18039,Elkhart ,Indiana,41.59739349,-85.8587347,100713,102891,203604
18041,Fayette ,Indiana,39.64002908,-85.17876388,11474,11785,23259
18043,Floyd ,Indiana,38.31893114,-85.90681259,37135,39674,76809
18045,Fountain ,Indiana,40.12089839,-87.24197108,8251,8235,16486
18047,Franklin ,Indiana,39.41486848,-85.06014333,11426,11416,22842
18049,Fulton ,Indiana,41.04697762,-86.26353702,9962,10250,20212
18051,Gibson ,Indiana,38.31185418,-87.58461347,16848,16748,33596
18053,Grant ,Indiana,40.51580008,-85.65471601,31935,35009,66944
18055,Greene ,Indiana,39.03634431,-86.96204482,16033,16262,32295
18057,Hamilton ,Indiana,40.07247955,-86.05202734,154532,161563,316095
18059,Hancock ,Indiana,39.82355246,-85.77325852,36255,37575,73830
18061,Harrison ,Indiana,38.19517153,-86.11130683,19875,19837,39712
18063,Hendricks ,Indiana,39.7695199,-86.50997023,80391,80549,160940
18065,Henry ,Indiana,39.9310632,-85.3964252,25391,23092,48483
18067,Howard ,Indiana,40.48360753,-86.11695939,39852,42535,82387
18069,Huntington ,Indiana,40.82921962,-85.48813053,17875,18503,36378
18071,Jackson ,Indiana,38.9064164,-86.03753973,21822,22116,43938
18073,Jasper ,Indiana,41.02298757,-87.11611834,16699,16750,33449
18075,Jay ,Indiana,40.4379574,-85.00570481,10398,10595,20993
18077,Jefferson ,Indiana,38.78578872,-85.43855044,15333,16904,32237
18079,Jennings ,Indiana,38.9969233,-85.62803436,13925,13802,27727
18081,Johnson ,Indiana,39.48996224,-86.10159622,74349,77215,151564
18083,Knox ,Indiana,38.68906994,-87.41802467,18949,18460,37409
18085,Kosciusko ,Indiana,41.24407151,-85.86071564,39264,39542,78806
18087,LaGrange ,Indiana,41.64262145,-85.42649137,19752,19190,38942
18089,Lake ,Indiana,41.41713854,-87.38221506,235515,251334,486849
18091,LaPorte ,Indiana,41.54598754,-86.73996089,57068,53484,110552
18093,Lawrence ,Indiana,38.84116043,-86.48345736,22558,23061,45619
18095,Madison ,Indiana,40.16161041,-85.71935636,64707,64798,129505
18097,Marion ,Indiana,39.78171119,-86.13847027,455007,489516,944523
18099,Marshall ,Indiana,41.32484017,-86.26175727,23174,23421,46595
18101,Martin ,Indiana,38.70801366,-86.80307337,5155,5055,10210
18103,Miami ,Indiana,40.76945637,-86.04504973,19084,16817,35901
18105,Monroe ,Indiana,39.16091027,-86.52312652,72416,72987,145403
18107,Montgomery ,Indiana,40.04039734,-86.89329764,19442,18834,38276
18109,Morgan ,Indiana,39.48156963,-86.44623079,34447,35280,69727
18111,Newton ,Indiana,40.95583812,-87.39757008,7004,7014,14018
18113,Noble ,Indiana,41.39860284,-85.41749645,23844,23607,47451
18115,Ohio ,Indiana,38.95007879,-84.96509112,2918,2969,5887
18117,Orange ,Indiana,38.54179057,-86.49506132,9727,9820,19547
18119,Owen ,Indiana,39.3128049,-86.83767051,10628,10250,20878
18121,Parke ,Indiana,39.77363464,-87.20637911,8211,8785,16996
18123,Perry ,Indiana,38.07965285,-86.63802268,10222,8919,19141
18125,Pike ,Indiana,38.39878003,-87.23216276,6256,6155,12411
18127,Porter ,Indiana,41.46054623,-87.0672588,83212,84829,168041
18129,Posey ,Indiana,38.02181793,-87.86845961,12787,12802,25589
18131,Pulaski ,Indiana,41.04185368,-86.69879739,6404,6256,12660
18133,Putnam ,Indiana,39.66628078,-86.84499599,19714,17845,37559
18135,Randolph ,Indiana,40.15758774,-85.01144274,12269,12807,25076
18137,Ripley ,Indiana,39.10347557,-85.26236518,14077,14348,28425
18139,Rush ,Indiana,39.61996981,-85.46576015,8185,8519,16704
18141,St. Joseph ,Indiana,41.61665474,-86.28985055,130832,138408,269240
18143,Scott ,Indiana,38.68507422,-85.74748029,11670,12073,23743
18145,Shelby ,Indiana,39.52371531,-85.79166263,21941,22458,44399
18147,Spencer ,Indiana,38.0140964,-87.00766951,10363,10163,20526
18149,Starke ,Indiana,41.28093741,-86.64762763,11302,11639,22941
18151,Steuben ,Indiana,41.64389193,-85.00085916,17542,16932,34474
18153,Sullivan ,Indiana,39.08884213,-87.41471967,11174,9618,20792
18155,Switzerland ,Indiana,38.82619748,-85.03700185,5504,5124,10628
18157,Tippecanoe ,Indiana,40.38861981,-86.89405933,96866,92428,189294
18159,Tipton ,Indiana,40.31134432,-86.05185147,7609,7609,15218
18161,Union ,Indiana,39.62559479,-84.92513791,3514,3639,7153
18163,Vanderburgh ,Indiana,38.0249606,-87.58581621,87676,93637,181313
18165,Vermillion ,Indiana,39.85382699,-87.46398212,7809,7751,15560
18167,Vigo ,Indiana,39.43063558,-87.38997396,54705,52988,107693
18169,Wabash ,Indiana,40.8456437,-85.79399879,15365,16266,31631
18171,Warren ,Indiana,40.34693718,-87.35330189,4124,4123,8247
18173,Warrick ,Indiana,38.09217365,-87.27208737,30409,31519,61928
18175,Washington ,Indiana,38.599998,-86.10530522,13892,13935,27827
18177,Wayne ,Indiana,39.86438236,-85.00983824,32288,34325,66613
18179,Wells ,Indiana,40.72918907,-85.221194,13773,14174,27947
18181,White ,Indiana,40.74975986,-86.86548809,12143,12074,24217
18183,Whitley ,Indiana,41.13938041,-85.50512035,16702,16947,33649
19001,Adair ,Iowa,41.33074049,-94.47096641,3516,3608,7124
19003,Adams ,Iowa,41.02897522,-94.69916586,1854,1872,3726
19005,Allamakee ,Iowa,43.2842824,-91.37805333,7045,6835,13880
19007,Appanoose ,Iowa,40.74317009,-92.86861877,6154,6356,12510
19009,Audubon ,Iowa,41.68460203,-94.90581788,2758,2879,5637
19011,Benton ,Iowa,42.08018646,-92.06574297,12783,12843,25626
19013,Black Hawk ,Iowa,42.47009069,-92.30882457,65309,67700,133009
19015,Boone ,Iowa,42.03650207,-93.93163339,13310,13089,26399
19017,Bremer ,Iowa,42.77458652,-92.31805393,12274,12508,24782
19019,Buchanan ,Iowa,42.47080625,-91.83784663,10451,10674,21125
19021,Buena Vista ,Iowa,42.73549599,-95.1511346,10238,10022,20260
19023,Butler ,Iowa,42.73156851,-92.79018092,7381,7354,14735
19025,Calhoun ,Iowa,42.38518551,-94.64040362,5044,4736,9780
19027,Carroll ,Iowa,42.0362079,-94.8605656,9988,10356,20344
19029,Cass ,Iowa,41.33149982,-94.92783803,6547,6644,13191
19031,Cedar ,Iowa,41.77232044,-91.13243117,9161,9284,18445
19033,Cerro Gordo ,Iowa,43.08155753,-93.26081364,20850,22134,42984
19035,Cherokee ,Iowa,42.73561393,-95.62381555,5796,5672,11468
19037,Chickasaw ,Iowa,43.06005148,-92.3176755,6058,6041,12099
19039,Clarke ,Iowa,41.02901429,-93.7851537,4689,4593,9282
19041,Clay ,Iowa,43.08257226,-95.15093604,8051,8262,16313
19043,Clayton ,Iowa,42.84472017,-91.34142923,8900,8772,17672
19045,Clinton ,Iowa,41.89802868,-90.53196563,23126,24092,47218
19047,Crawford ,Iowa,42.03720375,-95.38198703,8547,8585,17132
19049,Dallas ,Iowa,41.68487012,-94.0397709,41367,42635,84002
19051,Davis ,Iowa,40.74769344,-92.40971356,4398,4487,8885
19053,Decatur ,Iowa,40.73769891,-93.78628401,4017,4027,8044
19055,Delaware ,Iowa,42.47121197,-91.36733449,8689,8569,17258
19057,Des Moines ,Iowa,40.92317786,-91.18147574,19313,20287,39600
19059,Dickinson ,Iowa,43.37791096,-95.15088081,8515,8541,17056
19061,Dubuque ,Iowa,42.46882114,-90.88245689,47744,49058,96802
19063,Emmet ,Iowa,43.37794354,-94.6784286,4770,4781,9551
19065,Fayette ,Iowa,42.86261109,-91.84435518,9998,9931,19929
19067,Floyd ,Iowa,43.05993265,-92.78900648,7766,8092,15858
19069,Franklin ,Iowa,42.7325438,-93.26247472,5117,5128,10245
19071,Fremont ,Iowa,40.74556962,-95.60467614,3470,3498,6968
19073,Greene ,Iowa,42.03624153,-94.39683407,4380,4623,9003
19075,Grundy ,Iowa,42.40186532,-92.79142901,6108,6233,12341
19077,Guthrie ,Iowa,41.68374611,-94.50106212,5335,5339,10674
19079,Hamilton ,Iowa,42.3837507,-93.70679229,7377,7733,15110
19081,Hancock ,Iowa,43.08190167,-93.73427032,5494,5394,10888
19083,Hardin ,Iowa,42.38387388,-93.24039754,8565,8562,17127
19085,Harrison ,Iowa,41.68285868,-95.81683521,6989,7154,14143
19087,Henry ,Iowa,40.9879861,-91.54454205,10125,9801,19926
19089,Howard ,Iowa,43.35675953,-92.31720101,4580,4684,9264
19091,Humboldt ,Iowa,42.77646004,-94.20716003,4651,4915,9566
19093,Ida ,Iowa,42.38689844,-95.51349743,3457,3459,6916
19095,Iowa ,Iowa,41.68632088,-92.06549578,8052,8155,16207
19097,Jackson ,Iowa,42.17173547,-90.57425029,9712,9683,19395
19099,Jasper ,Iowa,41.68602916,-93.05375425,18669,18222,36891
19101,Jefferson ,Iowa,41.0317693,-91.9488887,9112,8965,18077
19103,Johnson ,Iowa,41.67153254,-91.5881044,72765,74236,147001
19105,Jones ,Iowa,42.1212281,-91.13146148,10585,9983,20568
19107,Keokuk ,Iowa,41.3364575,-92.17863867,5202,4998,10200
19109,Kossuth ,Iowa,43.20419581,-94.20671661,7547,7528,15075
19111,Lee ,Iowa,40.64199984,-91.47925471,17371,17170,34541
19113,Linn ,Iowa,42.0789587,-91.59902613,109540,112581,222121
19115,Louisa ,Iowa,41.21852079,-91.25960822,5724,5499,11223
19117,Lucas ,Iowa,41.0293955,-93.32773855,4318,4279,8597
19119,Lyon ,Iowa,43.38053058,-96.21023288,6013,5756,11769
19121,Madison ,Iowa,41.33071142,-94.01554263,8028,7862,15890
19123,Mahaska ,Iowa,41.33521489,-92.64091016,11252,10956,22208
19125,Marion ,Iowa,41.33444371,-93.09944585,16374,16833,33207
19127,Marshall ,Iowa,42.03583447,-92.99878979,20400,19871,40271
19129,Mills ,Iowa,41.03343008,-95.62131843,7516,7441,14957
19131,Mitchell ,Iowa,43.35636379,-92.78901296,5282,5349,10631
19133,Monona ,Iowa,42.05164263,-95.95990054,4283,4513,8796
19135,Monroe ,Iowa,41.02979569,-92.86900423,4064,3799,7863
19137,Montgomery ,Iowa,41.0301471,-95.15635726,4869,5286,10155
19139,Muscatine ,Iowa,41.48392136,-91.11270703,21476,21474,42950
19141,O'Brien ,Iowa,43.08375704,-95.62491379,6962,6949,13911
19143,Osceola ,Iowa,43.37857912,-95.62366732,3091,3024,6115
19145,Page ,Iowa,40.73913258,-95.15020277,7922,7441,15363
19147,Palo Alto ,Iowa,43.08208883,-94.67813192,4512,4543,9055
19149,Plymouth ,Iowa,42.73781252,-96.21413283,12288,12751,25039
19151,Pocahontas ,Iowa,42.73416445,-94.67874433,3384,3514,6898
19153,Polk ,Iowa,41.6854991,-93.57353196,233599,240675,474274
19155,Pottawattamie ,Iowa,41.33662283,-95.54229497,45923,47580,93503
19157,Poweshiek ,Iowa,41.68644275,-92.53145279,8990,9615,18605
19159,Ringgold ,Iowa,40.73516519,-94.24398812,2432,2552,4984
19161,Sac ,Iowa,42.38623879,-95.10535234,4818,5050,9868
19163,Scott ,Iowa,41.6370912,-90.62323883,84515,87773,172288
19165,Shelby ,Iowa,41.68509095,-95.31017789,5735,5959,11694
19167,Sioux ,Iowa,43.0826321,-96.17785131,17487,17338,34825
19169,Story ,Iowa,42.03623118,-93.46503839,50484,46438,96922
19171,Tama ,Iowa,42.07981047,-92.5325542,8497,8639,17136
19173,Taylor ,Iowa,40.73739709,-94.69642274,3168,3033,6201
19175,Union ,Iowa,41.02772802,-94.24234883,6063,6390,12453
19177,Van Buren ,Iowa,40.7532181,-91.94996628,3698,3525,7223
19179,Wapello ,Iowa,41.03058137,-92.40946505,17403,17912,35315
19181,Warren ,Iowa,41.33437071,-93.56135411,24118,25243,49361
19183,Washington ,Iowa,41.33560632,-91.71785985,11075,11068,22143
19185,Wayne ,Iowa,40.73949993,-93.32736005,3157,3256,6413
19187,Webster ,Iowa,42.4279449,-94.1817767,18972,17785,36757
19189,Winnebago ,Iowa,43.3775101,-93.73413099,5190,5381,10571
19191,Winneshiek ,Iowa,43.29062002,-91.84367475,10156,10245,20401
19193,Woodbury ,Iowa,42.38970362,-96.04477464,50496,51902,102398
19195,Worth ,Iowa,43.37737598,-93.26085344,3754,3735,7489
19197,Wright ,Iowa,42.7330839,-93.7351375,6383,6421,12804
20001,Allen ,Kansas,37.88572095,-95.3013594,6281,6349,12630
20003,Anderson ,Kansas,38.21418084,-95.293339,3932,3920,7852
20005,Atchison ,Kansas,39.53175193,-95.31348731,7949,8414,16363
20007,Barber ,Kansas,37.22885963,-98.68482282,2356,2377,4733
20009,Barton ,Kansas,38.4789632,-98.75645855,13362,13429,26791
20011,Bourbon ,Kansas,37.85520327,-94.84932869,7243,7459,14702
20013,Brown ,Kansas,39.82648788,-95.5642076,4685,4979,9664
20015,Butler ,Kansas,37.78123819,-96.8390418,33539,32929,66468
20017,Chase ,Kansas,38.30203656,-96.59394881,1340,1305,2645
20019,Chautauqua ,Kansas,37.15002546,-96.24538277,1757,1610,3367
20021,Cherokee ,Kansas,37.16932439,-94.84628642,9998,10333,20331
20023,Cheyenne ,Kansas,39.7858685,-101.7312939,1320,1357,2677
20025,Clark ,Kansas,37.23551254,-99.82030399,1037,1016,2053
20027,Clay ,Kansas,39.34972288,-97.16517646,4078,4064,8142
20029,Cloud ,Kansas,39.48029328,-97.64925787,4523,4537,9060
20031,Coffey ,Kansas,38.23686351,-95.7341048,4195,4101,8296
20033,Comanche ,Kansas,37.19126297,-99.27184409,912,868,1780
20035,Cowley ,Kansas,37.23770919,-96.83752845,17915,17676,35591
20037,Crawford ,Kansas,37.50731648,-94.85181559,19527,19581,39108
20039,Decatur ,Kansas,39.78473751,-100.4599391,1419,1462,2881
20041,Dickinson ,Kansas,38.8664868,-97.15269783,9555,9449,19004
20043,Doniphan ,Kansas,39.7880604,-95.14679869,3960,3776,7736
20045,Douglas ,Kansas,38.88466799,-95.29259106,59067,60252,119319
20047,Edwards ,Kansas,37.88761461,-99.3121571,1494,1431,2925
20049,Elk ,Kansas,37.45368647,-96.24415485,1258,1304,2562
20051,Ellis ,Kansas,38.91473313,-99.31726626,14394,14484,28878
20053,Ellsworth ,Kansas,38.69663853,-98.20476048,3654,2639,6293
20055,Finney ,Kansas,38.04428211,-100.7369985,18940,18017,36957
20057,Ford ,Kansas,37.6917175,-99.88795654,17896,16588,34484
20059,Franklin ,Kansas,38.56453053,-95.28594747,12567,12996,25563
20061,Geary ,Kansas,39.00241626,-96.75253039,18540,16355,34895
20063,Gove ,Kansas,38.91609174,-100.4829667,1298,1321,2619
20065,Graham ,Kansas,39.34972719,-99.88322903,1290,1255,2545
20067,Grant ,Kansas,37.56226603,-101.308018,3988,3628,7616
20069,Gray ,Kansas,37.73818203,-100.4378836,3025,3012,6037
20071,Greeley ,Kansas,38.48056391,-101.8060441,581,619,1200
20073,Greenwood ,Kansas,37.87782471,-96.23261222,3106,3050,6156
20075,Hamilton ,Kansas,37.999123,-101.7912406,1353,1263,2616
20077,Harper ,Kansas,37.19162258,-98.07548313,2884,2789,5673
20079,Harvey ,Kansas,38.04321376,-97.42723286,17200,17355,34555
20081,Haskell ,Kansas,37.56222283,-100.8711794,2006,2041,4047
20083,Hodgeman ,Kansas,38.08749317,-99.89792613,941,901,1842
20085,Jackson ,Kansas,39.41682464,-95.79366875,6642,6676,13318
20087,Jefferson ,Kansas,39.23576285,-95.38343919,9581,9307,18888
20089,Jewell ,Kansas,39.78473319,-98.21833955,1482,1434,2916
20091,Johnson ,Kansas,38.88376637,-94.82231677,286987,298515,585502
20093,Kearny ,Kansas,38.0002325,-101.319883,1934,1998,3932
20095,Kingman ,Kansas,37.55889838,-98.13633587,3749,3721,7470
20097,Kiowa ,Kansas,37.55822974,-99.28607727,1234,1292,2526
20099,Labette ,Kansas,37.19130785,-95.2975707,10070,10297,20367
20101,Lane ,Kansas,38.48133334,-100.4664251,850,792,1642
20103,Leavenworth ,Kansas,39.19930867,-95.03798734,42933,37109,80042
20105,Lincoln ,Kansas,39.04530869,-98.20769053,1585,1512,3097
20107,Linn ,Kansas,38.21226067,-94.84297032,4800,4835,9635
20109,Logan ,Kansas,38.91730386,-101.1484097,1398,1412,2810
20111,Lyon ,Kansas,38.45619845,-96.15264733,16260,17039,33299
20113,McPherson ,Kansas,38.39165317,-97.64801952,14159,14471,28630
20115,Marion ,Kansas,38.35886741,-97.09688687,5971,6061,12032
20117,Marshall ,Kansas,39.78356676,-96.52294061,4924,4874,9798
20119,Meade ,Kansas,37.23813195,-100.366251,2129,2132,4261
20121,Miami ,Kansas,38.56353191,-94.83809568,16384,16743,33127
20123,Mitchell ,Kansas,39.39326642,-98.20936979,3163,3059,6222
20125,Montgomery ,Kansas,37.19252119,-95.74287901,16410,16560,32970
20127,Morris ,Kansas,38.68741558,-96.64990012,2753,2813,5566
20129,Morton ,Kansas,37.19138845,-101.7992491,1449,1389,2838
20131,Nemaha ,Kansas,39.78341152,-96.01408048,5119,4985,10104
20133,Neosho ,Kansas,37.55849543,-95.30679411,7923,8202,16125
20135,Ness ,Kansas,38.47942841,-99.91615277,1493,1462,2955
20137,Norton ,Kansas,39.78438555,-99.90348541,3036,2450,5486
20139,Osage ,Kansas,38.65232091,-95.72690732,7968,7914,15882
20141,Osborne ,Kansas,39.35033034,-98.76794728,1807,1796,3603
20143,Ottawa ,Kansas,39.13253162,-97.65021154,3043,2859,5902
20145,Pawnee ,Kansas,38.18132473,-99.23672224,3769,2940,6709
20147,Phillips ,Kansas,39.78456374,-99.34700886,2648,2760,5408
20149,Pottawatomie ,Kansas,39.37900505,-96.34237183,11746,11799,23545
20151,Pratt ,Kansas,37.64773178,-98.73962276,4785,4797,9582
20153,Rawlins ,Kansas,39.78518766,-101.0758505,1286,1223,2509
20155,Reno ,Kansas,37.95295885,-98.08598674,31775,31326,63101
20157,Republic ,Kansas,39.82776407,-97.65061755,2271,2415,4686
20159,Rice ,Kansas,38.34717595,-98.20098737,4844,4918,9762
20161,Riley ,Kansas,39.29656769,-96.73515679,39909,35387,75296
20163,Rooks ,Kansas,39.35022578,-99.32501192,2469,2649,5118
20165,Rush ,Kansas,38.5231279,-99.30915301,1521,1581,3102
20167,Russell ,Kansas,38.91480564,-98.76238719,3452,3525,6977
20169,Saline ,Kansas,38.78381121,-97.64995459,27375,27602,54977
20171,Scott ,Kansas,38.4821737,-100.9068598,2460,2489,4949
20173,Sedgwick ,Kansas,37.68476832,-97.46098502,253201,258863,512064
20175,Seward ,Kansas,37.19332916,-100.8513444,11601,11091,22692
20177,Shawnee ,Kansas,39.04151431,-95.7565293,86327,91957,178284
20179,Sheridan ,Kansas,39.35034744,-100.4418395,1275,1231,2506
20181,Sherman ,Kansas,39.35144906,-101.7199841,3003,2963,5966
20183,Smith ,Kansas,39.78516694,-98.78546973,1809,1854,3663
20185,Stafford ,Kansas,38.03098114,-98.71742594,2157,2057,4214
20187,Stanton ,Kansas,37.56300498,-101.7842167,1055,1008,2063
20189,Stevens ,Kansas,37.19233949,-101.312059,2882,2804,5686
20191,Sumner ,Kansas,37.23731237,-97.47654277,11581,11627,23208
20193,Thomas ,Kansas,39.35091755,-101.0555604,3816,4008,7824
20195,Trego ,Kansas,38.91430951,-99.87283477,1450,1408,2858
20197,Wabaunsee ,Kansas,38.95326993,-96.20499592,3497,3391,6888
20199,Wallace ,Kansas,38.91668121,-101.763616,790,785,1575
20201,Washington ,Kansas,39.78417867,-97.08753439,2844,2681,5525
20203,Wichita ,Kansas,38.48205352,-101.3473839,1019,1124,2143
20205,Wilson ,Kansas,37.55926513,-95.74341897,4318,4462,8780
20207,Woodson ,Kansas,37.88669688,-95.74013436,1583,1587,3170
20209,Wyandotte ,Kansas,39.11461544,-94.76455165,81294,83051,164345
21001,Adair ,Kentucky,37.10417006,-85.28062,9525,9716,19241
21003,Allen ,Kentucky,36.75125145,-86.19041519,10339,10455,20794
21005,Anderson ,Kentucky,38.00392065,-84.99099658,10873,11341,22214
21007,Ballard ,Kentucky,37.05848196,-88.99925589,3992,4098,8090
21009,Barren ,Kentucky,36.96558592,-85.93366216,21165,22515,43680
21011,Bath ,Kentucky,38.14495217,-83.74267657,6096,6172,12268
21013,Bell ,Kentucky,36.730646,-83.67408276,13325,13863,27188
21015,Boone ,Kentucky,38.96985577,-84.7278378,64061,65034,129095
21017,Bourbon ,Kentucky,38.20673452,-84.21715057,9670,10474,20144
21019,Boyd ,Kentucky,38.35957259,-82.68775351,23958,24133,48091
21021,Boyle ,Kentucky,37.62438277,-84.86684215,14903,15010,29913
21023,Bracken ,Kentucky,38.68879489,-84.09014459,4183,4123,8306
21025,Breathitt ,Kentucky,37.52161567,-83.32406325,6577,6539,13116
21027,Breckinridge ,Kentucky,37.77338938,-86.4293375,10088,9992,20080
21029,Bullitt ,Kentucky,37.97007363,-85.69586026,39627,39839,79466
21031,Butler ,Kentucky,37.2072845,-86.68162334,6412,6333,12745
21033,Caldwell ,Kentucky,37.14540715,-87.86786378,6168,6559,12727
21035,Calloway ,Kentucky,36.62103517,-88.27224811,18818,19958,38776
21037,Campbell ,Kentucky,38.94651469,-84.37951741,45124,47143,92267
21039,Carlisle ,Kentucky,36.85320008,-88.97098354,2344,2497,4841
21041,Carroll ,Kentucky,38.66783831,-85.1235738,5455,5256,10711
21043,Carter ,Kentucky,38.31818559,-83.04953875,13437,13853,27290
21045,Casey ,Kentucky,37.32232537,-84.9283212,7738,8058,15796
21047,Christian ,Kentucky,36.89416887,-87.49045444,38411,33852,72263
21049,Clark ,Kentucky,37.97082137,-84.14741622,17573,18299,35872
21051,Clay ,Kentucky,37.15969564,-83.71464309,10827,9794,20621
21053,Clinton ,Kentucky,36.72744165,-85.13617383,5084,5127,10211
21055,Crittenden ,Kentucky,37.35272341,-88.09719713,4593,4490,9083
21057,Cumberland ,Kentucky,36.78659786,-85.38851235,3289,3424,6713
21059,Daviess ,Kentucky,37.73178564,-87.08726981,48742,51195,99937
21061,Edmonson ,Kentucky,37.20879863,-86.23842222,6093,6029,12122
21063,Elliott ,Kentucky,38.11790057,-83.09761514,4285,3232,7517
21065,Estill ,Kentucky,37.69244423,-83.96431121,7104,7209,14313
21067,Fayette ,Kentucky,38.04231919,-84.45871292,156453,162281,318734
21069,Fleming ,Kentucky,38.37011818,-83.69665601,7146,7333,14479
21071,Floyd ,Kentucky,37.55711905,-82.74570557,18070,18856,36926
21073,Franklin ,Kentucky,38.23915254,-84.87706177,24390,25906,50296
21075,Fulton ,Kentucky,36.55404203,-89.18736232,3102,3108,6210
21077,Gallatin ,Kentucky,38.75687068,-84.85932837,4473,4230,8703
21079,Garrard ,Kentucky,37.63959984,-84.53766514,8475,8853,17328
21081,Grant ,Kentucky,38.64881434,-84.62458221,12318,12597,24915
21083,Graves ,Kentucky,36.72310322,-88.65120022,18348,18946,37294
21085,Grayson ,Kentucky,37.46081386,-86.34391608,13073,13105,26178
21087,Green ,Kentucky,37.26403739,-85.55312116,5393,5630,11023
21089,Greenup ,Kentucky,38.54569292,-82.92234465,17411,18354,35765
21091,Hancock ,Kentucky,37.8414909,-86.77791284,4494,4225,8719
21093,Hardin ,Kentucky,37.69792375,-85.96344817,53723,54372,108095
21095,Harlan ,Kentucky,36.85694551,-83.21799386,13132,14002,27134
21097,Harrison ,Kentucky,38.4418152,-84.33136382,9146,9522,18668
21099,Hart ,Kentucky,37.29993003,-85.88469126,9166,9461,18627
21101,Henderson ,Kentucky,37.79580395,-87.57303115,22328,23809,46137
21103,Henry ,Kentucky,38.4484671,-85.11891597,7813,8001,15814
21105,Hickman ,Kentucky,36.67812957,-88.97614455,2133,2435,4568
21107,Hopkins ,Kentucky,37.30883958,-87.54083661,22219,23445,45664
21109,Jackson ,Kentucky,37.41976588,-84.00575272,6655,6718,13373
21111,Jefferson ,Kentucky,38.18717511,-85.65913786,370844,396310,767154
21113,Jessamine ,Kentucky,37.87207148,-84.58095198,25479,26943,52422
21115,Johnson ,Kentucky,37.84664101,-82.8315147,11200,11643,22843
21117,Kenton ,Kentucky,38.93339565,-84.53331132,81430,83258,164688
21119,Knott ,Kentucky,37.35404719,-82.95414137,7693,7820,15513
21121,Knox ,Kentucky,36.89064843,-83.85404403,15330,16137,31467
21123,Larue ,Kentucky,37.54579346,-85.6979283,7027,7129,14156
21125,Laurel ,Kentucky,37.11067362,-84.11780203,29412,30768,60180
21127,Lawrence ,Kentucky,38.06787567,-82.73475458,7898,7885,15783
21129,Lee ,Kentucky,37.59480249,-83.71619577,3501,3250,6751
21131,Leslie ,Kentucky,37.09406862,-83.38112755,5067,5405,10472
21133,Letcher ,Kentucky,37.12117501,-82.8553129,11087,11589,22676
21135,Lewis ,Kentucky,38.5315828,-83.3780685,6714,6776,13490
21137,Lincoln ,Kentucky,37.45536765,-84.66084397,11981,12477,24458
21139,Livingston ,Kentucky,37.20962302,-88.3537206,4626,4637,9263
21141,Logan ,Kentucky,36.85968526,-86.87891917,13154,13695,26849
21143,Lyon ,Kentucky,37.01910069,-88.08316022,4496,3690,8186
21145,McCracken ,Kentucky,37.05395743,-88.71265237,31193,34091,65284
21147,McCreary ,Kentucky,36.7371207,-84.48422153,9613,8022,17635
21149,McLean ,Kentucky,37.52919291,-87.26360911,4602,4729,9331
21151,Madison ,Kentucky,37.72018252,-84.27800423,43737,45963,89700
21153,Magoffin ,Kentucky,37.70646879,-83.06491971,6348,6318,12666
21155,Marion ,Kentucky,37.55253601,-85.2696361,9751,9481,19232
21157,Marshall ,Kentucky,36.88344279,-88.3293727,15341,15825,31166
21159,Martin ,Kentucky,37.80157694,-82.51323011,6583,5336,11919
21161,Mason ,Kentucky,38.59518639,-83.82408709,8485,8668,17153
21163,Meade ,Kentucky,37.96974097,-86.21697477,14352,13974,28326
21165,Menifee ,Kentucky,37.94138815,-83.59886645,3421,2984,6405
21167,Mercer ,Kentucky,37.81104053,-84.87445675,10597,10919,21516
21169,Metcalfe ,Kentucky,36.99053102,-85.62922748,4923,5081,10004
21171,Monroe ,Kentucky,36.71215467,-85.71648017,5370,5264,10634
21173,Montgomery ,Kentucky,38.03351826,-83.91314317,13541,14218,27759
21175,Morgan ,Kentucky,37.92228294,-83.25888589,7425,5860,13285
21177,Muhlenberg ,Kentucky,37.21578975,-87.14203055,15286,15795,31081
21179,Nelson ,Kentucky,37.805154,-85.46595802,22492,22896,45388
21181,Nicholas ,Kentucky,38.33555368,-84.01530138,3369,3731,7100
21183,Ohio ,Kentucky,37.47819577,-86.84887835,11960,12111,24071
21185,Oldham ,Kentucky,38.39943805,-85.44833916,34328,31046,65374
21187,Owen ,Kentucky,38.51964953,-84.82810334,5304,5437,10741
21189,Owsley ,Kentucky,37.41919964,-83.68309732,1947,2516,4463
21191,Pendleton ,Kentucky,38.695637,-84.36025442,7360,7160,14520
21193,Perry ,Kentucky,37.24429917,-83.22147077,13273,13644,26917
21195,Pike ,Kentucky,37.4690704,-82.39582319,29507,30976,60483
21197,Powell ,Kentucky,37.83112678,-83.82373372,6048,6273,12321
21199,Pulaski ,Kentucky,37.10386539,-84.57725002,31517,32628,64145
21201,Robertson ,Kentucky,38.5188089,-84.05203189,1147,996,2143
21203,Rockcastle ,Kentucky,37.36505827,-84.31600989,8170,8657,16827
21205,Rowan ,Kentucky,38.1962554,-83.42110798,11763,12736,24499
21207,Russell ,Kentucky,36.99109064,-85.05865143,8688,9072,17760
21209,Scott ,Kentucky,38.29154578,-84.58392157,26516,27001,53517
21211,Shelby ,Kentucky,38.21545335,-85.19477852,22613,24173,46786
21213,Simpson ,Kentucky,36.74195036,-86.58224359,8926,9137,18063
21215,Spencer ,Kentucky,38.03252017,-85.32782654,9277,8969,18246
21217,Taylor ,Kentucky,37.3664657,-85.32792647,12525,12975,25500
21219,Todd ,Kentucky,36.83568225,-87.17923393,6049,6301,12350
21221,Trigg ,Kentucky,36.80635868,-87.87335278,7077,7267,14344
21223,Trimble ,Kentucky,38.61299711,-85.33754103,4238,4399,8637
21225,Union ,Kentucky,37.65846199,-87.94534462,7597,7205,14802
21227,Warren ,Kentucky,36.99357345,-86.42380703,61873,64554,126427
21229,Washington ,Kentucky,37.75338014,-85.17476537,5865,6154,12019
21231,Wayne ,Kentucky,36.8012791,-84.82862313,10154,10455,20609
21233,Webster ,Kentucky,37.51844353,-87.68316317,6457,6698,13155
21235,Whitley ,Kentucky,36.75809682,-84.14517967,17668,18421,36089
21237,Wolfe ,Kentucky,37.73931923,-83.49316616,3596,3627,7223
21239,Woodford ,Kentucky,38.04238651,-84.74360194,12564,13533,26097
22001,Acadia Parish,Louisiana,30.29053648,-92.41198415,30491,32077,62568
22003,Allen Parish,Louisiana,30.65291854,-92.8279186,14638,11023,25661
22005,Ascension Parish,Louisiana,30.20354432,-90.91130991,59998,61178,121176
22007,Assumption Parish,Louisiana,29.90078262,-91.06258775,11005,11709,22714
22009,Avoyelles Parish,Louisiana,31.07623772,-92.00138568,20607,20275,40882
22011,Beauregard Parish,Louisiana,30.64845866,-93.34336855,18712,18057,36769
22013,Bienville Parish,Louisiana,32.34717073,-93.05597977,6523,7145,13668
22015,Bossier Parish,Louisiana,32.67892599,-93.60504359,62349,63782,126131
22017,Caddo Parish,Louisiana,32.58007092,-93.8823288,117828,130533,248361
22019,Calcasieu Parish,Louisiana,30.22927163,-93.35801271,97603,102579,200182
22021,Caldwell Parish,Louisiana,32.09230989,-92.11655892,5277,4719,9996
22023,Cameron Parish,Louisiana,29.8754432,-93.1938179,3357,3511,6868
22025,Catahoula Parish,Louisiana,31.66617985,-91.84706124,5214,4679,9893
22027,Claiborne Parish,Louisiana,32.82263508,-92.99575993,9205,6948,16153
22029,Concordia Parish,Louisiana,31.44585576,-91.64006958,10210,9811,20021
22031,De Soto Parish,Louisiana,32.05543535,-93.73724616,13172,14044,27216
22033,East Baton Rouge Parish,Louisiana,30.53825126,-91.09560315,212778,231316,444094
22035,East Carroll Parish,Louisiana,32.73255145,-91.23505403,4373,2852,7225
22037,East Feliciana Parish,Louisiana,30.84510545,-91.04552429,10715,8784,19499
22039,Evangeline Parish,Louisiana,30.72894984,-92.40590575,17142,16494,33636
22041,Franklin Parish,Louisiana,32.13321369,-91.67377188,9981,10341,20322
22043,Grant Parish,Louisiana,31.5996974,-92.55950489,12658,9690,22348
22045,Iberia Parish,Louisiana,29.89652871,-91.72998354,35508,37183,72691
22047,Iberville Parish,Louisiana,30.25848996,-91.34933844,16661,16295,32956
22049,Jackson Parish,Louisiana,32.30205969,-92.55778384,8080,7846,15926
22051,Jefferson Parish,Louisiana,29.7871678,-90.12738939,211175,224125,435300
22053,Jefferson Davis Parish,Louisiana,30.26770296,-92.81412241,15590,15877,31467
22055,Lafayette Parish,Louisiana,30.20674465,-92.06387515,117169,122922,240091
22057,Lafourche Parish,Louisiana,29.56623879,-90.42577006,48261,49953,98214
22059,LaSalle Parish,Louisiana,31.67670104,-92.16040875,7730,7219,14949
22061,Lincoln Parish,Louisiana,32.60161626,-92.66483583,23041,24315,47356
22063,Livingston Parish,Louisiana,30.44014952,-90.72789748,67836,70275,138111
22065,Madison Parish,Louisiana,32.36440307,-91.24262373,5708,5764,11472
22067,Morehouse Parish,Louisiana,32.82021594,-91.80178763,12444,13548,25992
22069,Natchitoches Parish,Louisiana,31.72353781,-93.09622461,18622,20341,38963
22071,Orleans Parish,Louisiana,30.0686862,-89.92883167,185377,204271,389648
22073,Ouachita Parish,Louisiana,32.47832375,-92.15486594,74853,81222,156075
22075,Plaquemines Parish,Louisiana,29.4405264,-89.60968112,11617,11756,23373
22077,Pointe Coupee Parish,Louisiana,30.7093814,-91.60078731,10614,11544,22158
22079,Rapides Parish,Louisiana,31.19862998,-92.53318687,63681,67865,131546
22081,Red River Parish,Louisiana,32.09313295,-93.33986542,4067,4551,8618
22083,Richland Parish,Louisiana,32.41780311,-91.76347507,9952,10522,20474
22085,Sabine Parish,Louisiana,31.56400056,-93.55459812,11929,12159,24088
22087,St. Bernard Parish,Louisiana,29.86925543,-89.5551532,22402,23292,45694
22089,St. Charles Parish,Louisiana,29.90547792,-90.35819454,26121,26603,52724
22091,St. Helena Parish,Louisiana,30.82199018,-90.71034058,5039,5372,10411
22093,St. James Parish,Louisiana,30.0263033,-90.79633115,10266,11091,21357
22095,St. John the Baptist Parish,Louisiana,30.12646199,-90.47089984,21308,22138,43446
22097,St. Landry Parish,Louisiana,30.59884607,-92.00586173,40151,43298,83449
22099,St. Martin Parish,Louisiana,30.12908921,-91.60830334,26452,27300,53752
22101,St. Mary Parish,Louisiana,29.70465723,-91.44315054,25607,26127,51734
22103,St. Tammany Parish,Louisiana,30.41022617,-89.9583012,122347,129746,252093
22105,Tangipahoa Parish,Louisiana,30.62662974,-90.40567708,63237,67267,130504
22107,Tensas Parish,Louisiana,32.00171085,-91.3400997,2296,2370,4666
22109,Terrebonne Parish,Louisiana,29.41477471,-90.86634415,55305,57282,112587
22111,Union Parish,Louisiana,32.8318447,-92.3747932,11132,11343,22475
22113,Vermilion Parish,Louisiana,29.84654087,-92.32380996,29121,30746,59867
22115,Vernon Parish,Louisiana,31.10831137,-93.18421037,27126,23881,51007
22117,Washington Parish,Louisiana,30.85332285,-90.04045257,22963,23494,46457
22119,Webster Parish,Louisiana,32.71346949,-93.33497408,19242,20389,39631
22121,West Baton Rouge Parish,Louisiana,30.46341284,-91.31273518,12863,12997,25860
22123,West Carroll Parish,Louisiana,32.78849999,-91.45676951,5704,5476,11180
22125,West Feliciana Parish,Louisiana,30.87980394,-91.4200066,9802,5575,15377
22127,Winn Parish,Louisiana,31.94425843,-92.63668641,7733,6761,14494
23001,Androscoggin ,Maine,44.16579102,-70.20647121,52514,54930,107444
23003,Aroostook ,Maine,46.65891616,-68.59890428,33745,34524,68269
23005,Cumberland ,Maine,43.84641179,-70.39879001,141276,149668,290944
23007,Franklin ,Maine,44.9740326,-70.44400818,14651,15368,30019
23009,Hancock ,Maine,44.66419124,-68.35859842,26374,28167,54541
23011,Kennebec ,Maine,44.40911177,-69.76733332,59159,62386,121545
23013,Knox ,Maine,44.14104239,-69.16856931,19701,20122,39823
23015,Lincoln ,Maine,44.06638253,-69.54350467,16624,17443,34067
23017,Oxford ,Maine,44.49987254,-70.75660577,28316,29009,57325
23019,Penobscot ,Maine,45.40063185,-68.64945872,75196,76552,151748
23021,Piscataquis ,Maine,45.8373423,-69.2845937,8440,8447,16887
23023,Sagadahoc ,Maine,43.95977198,-69.85456646,17228,18049,35277
23025,Somerset ,Maine,45.51390922,-69.95890401,25085,25625,50710
23027,Waldo ,Maine,44.50275192,-69.1454058,19347,20071,39418
23029,Washington ,Maine,45.03063661,-67.62879048,15614,16080,31694
23031,York ,Maine,43.47821628,-70.71437648,99029,104073,203102
24001,Allegany ,Maryland,39.6214504,-78.69761749,37646,34331,71977
24003,Anne Arundel ,Maryland,39.0064628,-76.60506838,281176,286520,567696
24005,Baltimore ,Maryland,39.46271143,-76.63929188,392421,435204,827625
24009,Calvert ,Maryland,38.54336128,-76.56867913,45307,45775,91082
24011,Caroline ,Maryland,38.87171302,-75.83155514,16021,16854,32875
24013,Carroll ,Maryland,39.56288409,-77.02254595,82841,84681,167522
24015,Cecil ,Maryland,39.57124104,-75.94073959,51149,51368,102517
24017,Charles ,Maryland,38.5072946,-76.99216185,76071,81600,157671
24019,Dorchester ,Maryland,38.48290909,-76.01254892,15335,16926,32261
24021,Frederick ,Maryland,39.47223039,-77.3980066,122524,125948,248472
24023,Garrett ,Maryland,39.52888601,-79.27293894,14561,14815,29376
24025,Harford ,Maryland,39.5610915,-76.31705649,122763,128262,251025
24027,Howard ,Maryland,39.25072396,-76.93118995,154285,161042,315327
24029,Kent ,Maryland,39.25453706,-76.03992874,9344,10249,19593
24031,Montgomery ,Maryland,39.13633399,-77.20418249,502389,537744,1040133
24033,Prince George's ,Maryland,38.82952707,-76.84727989,436446,469756,906202
24035,Queen Anne's ,Maryland,39.06801418,-76.02027633,24426,24929,49355
24037,St. Mary's ,Maryland,38.30239758,-76.60584716,55552,55979,111531
24039,Somerset ,Maryland,38.11578048,-75.75175602,13833,11904,25737
24041,Talbot ,Maryland,38.77134602,-76.0971001,17626,19585,37211
24043,Washington ,Maryland,39.60360671,-77.81395284,76098,73713,149811
24045,Wicomico ,Maryland,38.37329433,-75.62078298,48535,53637,102172
24047,Worcester ,Maryland,38.21277855,-75.33400403,25283,26281,51564
24510,Baltimore city,Maryland,39.30507927,-76.61444154,288691,326009,614700
25001,Barnstable ,Massachusetts,41.72417861,-70.29149042,102176,111514,213690
25003,Berkshire ,Massachusetts,42.37069926,-73.20634678,61603,65725,127328
25005,Bristol ,Massachusetts,41.79716381,-71.11437747,270624,288281,558905
25007,Dukes ,Massachusetts,41.39608469,-70.65008762,8475,8838,17313
25009,Essex ,Massachusetts,42.67309223,-70.951967,376475,404549,781024
25011,Franklin ,Massachusetts,42.58309255,-72.59183801,34601,36334,70935
25013,Hampden ,Massachusetts,42.13508896,-72.63158231,226555,242561,469116
25015,Hampshire ,Massachusetts,42.3401535,-72.66378583,75426,85733,161159
25017,Middlesex ,Massachusetts,42.48557457,-71.39179841,779666,815526,1595192
25019,Nantucket ,Massachusetts,41.28313946,-70.06919709,5650,5451,11101
25021,Norfolk ,Massachusetts,42.16068851,-71.21110421,335338,362911,698249
25023,Plymouth ,Massachusetts,41.95116262,-70.81141076,249126,263009,512135
25025,Suffolk ,Massachusetts,42.33358904,-71.0708743,382830,408936,791766
25027,Worcester ,Massachusetts,42.35142184,-71.90774265,405434,416846,822280
26001,Alcona ,Michigan,44.68540489,-83.59372645,5224,5140,10364
26003,Alger ,Michigan,46.40864027,-86.60396542,5104,4090,9194
26005,Allegan ,Michigan,42.59127318,-85.88843866,57586,57664,115250
26007,Alpena ,Michigan,45.03486333,-83.62580679,14095,14517,28612
26009,Antrim ,Michigan,44.99907785,-85.14023477,11515,11662,23177
26011,Arenac ,Michigan,44.06465487,-83.89403739,7681,7484,15165
26013,Baraga ,Michigan,46.6626205,-88.36518562,4720,3787,8507
26015,Barry ,Michigan,42.59503952,-85.30895874,30248,29809,60057
26017,Bay ,Michigan,43.70800423,-83.99157753,51486,53300,104786
26019,Benzie ,Michigan,44.63872337,-86.01553792,8743,8809,17552
26021,Berrien ,Michigan,41.95467785,-86.4122676,75737,79070,154807
26023,Branch ,Michigan,41.91613791,-85.05902456,22485,21099,43584
26025,Calhoun ,Michigan,42.2465419,-85.00558482,65782,68691,134473
26027,Cass ,Michigan,41.91536112,-85.99348946,25789,25671,51460
26029,Charlevoix ,Michigan,45.3021535,-85.12633662,12907,13312,26219
26031,Cheboygan ,Michigan,45.44651949,-84.49990074,12720,12738,25458
26033,Chippewa ,Michigan,46.30527018,-84.57768765,20794,17040,37834
26035,Clare ,Michigan,43.98789909,-84.84786305,15159,15457,30616
26037,Clinton ,Michigan,42.9436637,-84.60151723,38528,39368,77896
26039,Crawford ,Michigan,44.68366237,-84.61029577,7060,6776,13836
26041,Delta ,Michigan,45.91911878,-86.9242276,17998,18192,36190
26043,Dickinson ,Michigan,46.00914879,-87.87024586,12754,12816,25570
26045,Eaton ,Michigan,42.59607599,-84.83830305,53353,55802,109155
26047,Emmet ,Michigan,45.52095802,-84.89079686,16307,16732,33039
26049,Genesee ,Michigan,43.02172073,-83.70670935,197382,211979,409361
26051,Gladwin ,Michigan,43.99065809,-84.38827198,12739,12550,25289
26053,Gogebic ,Michigan,46.4088957,-89.69443186,8324,7090,15414
26055,Grand Traverse ,Michigan,44.66876259,-85.5604922,45367,46379,91746
26057,Gratiot ,Michigan,43.29273488,-84.60492496,21961,19106,41067
26059,Hillsdale ,Michigan,41.88778449,-84.59294121,22798,23032,45830
26061,Houghton ,Michigan,46.89776972,-88.6874107,19668,16692,36360
26063,Huron ,Michigan,43.83335678,-83.02323063,15692,15851,31543
26065,Ingham ,Michigan,42.5970992,-84.37354629,140970,148594,289564
26067,Ionia ,Michigan,42.94509622,-85.07460484,34053,30123,64176
26069,Iosco ,Michigan,44.35584286,-83.6358522,12578,12669,25247
26071,Iron ,Michigan,46.20869189,-88.53054536,5595,5617,11212
26073,Isabella ,Michigan,43.6406119,-84.84678503,34371,36404,70775
26075,Jackson ,Michigan,42.24848867,-84.42342721,81205,77708,158913
26077,Kalamazoo ,Michigan,42.2454605,-85.53118546,128025,133548,261573
26079,Kalkaska ,Michigan,44.6846684,-85.09020823,8908,8555,17463
26081,Kent ,Michigan,43.03215075,-85.54929359,316734,326406,643140
26083,Keweenaw ,Michigan,47.62791243,-88.43455699,1111,1019,2130
26085,Lake ,Michigan,43.99011424,-85.8016334,6000,5763,11763
26087,Lapeer ,Michigan,43.09014649,-83.22178479,44842,43360,88202
26089,Leelanau ,Michigan,44.93858767,-85.81179899,10742,10897,21639
26091,Lenawee ,Michigan,41.8951225,-84.06638651,49815,48659,98474
26093,Livingston ,Michigan,42.60291957,-83.91152697,94566,93916,188482
26095,Luce ,Michigan,46.47066022,-85.54436929,3743,2621,6364
26097,Mackinac ,Michigan,46.08022584,-85.08684538,5463,5354,10817
26099,Macomb ,Michigan,42.69553685,-82.9322513,422835,445869,868704
26101,Manistee ,Michigan,44.33300256,-86.05682439,12658,11786,24444
26103,Marquette ,Michigan,46.43135809,-87.64158181,33703,33236,66939
26105,Mason ,Michigan,43.99516735,-86.24997444,14310,14574,28884
26107,Mecosta ,Michigan,43.64077236,-85.3246034,21844,21420,43264
26109,Menominee ,Michigan,45.58003372,-87.55656863,11781,11453,23234
26111,Midland ,Michigan,43.64684327,-84.38811932,40980,42409,83389
26113,Missaukee ,Michigan,44.33738906,-85.09472248,7668,7338,15006
26115,Monroe ,Michigan,41.92868795,-83.53749271,73914,75785,149699
26117,Montcalm ,Michigan,43.31095166,-85.15250861,32595,30614,63209
26119,Montmorency ,Michigan,45.027611,-84.127221,4665,4596,9261
26121,Muskegon ,Michigan,43.29124705,-86.15204777,86083,86960,173043
26123,Newaygo ,Michigan,43.55419013,-85.80092248,24149,23993,48142
26125,Oakland ,Michigan,42.66039551,-83.38580995,610771,640072,1250843
26127,Oceana ,Michigan,43.64093364,-86.26757844,13412,13005,26417
26129,Ogemaw ,Michigan,44.33496373,-84.12644419,10480,10448,20928
26131,Ontonagon ,Michigan,46.66445524,-89.31487563,3054,2914,5968
26133,Osceola ,Michigan,43.98980712,-85.32528706,11738,11494,23232
26135,Oscoda ,Michigan,44.68176697,-84.12977084,4251,4026,8277
26137,Otsego ,Michigan,45.0213899,-84.59896838,12061,12336,24397
26139,Ottawa ,Michigan,42.95984867,-85.99610113,140285,143749,284034
26141,Presque Isle ,Michigan,45.34018978,-83.91760649,6386,6411,12797
26143,Roscommon ,Michigan,44.33556784,-84.61156803,11857,12020,23877
26145,Saginaw ,Michigan,43.33504204,-84.05316963,93581,99197,192778
26147,St. Clair ,Michigan,42.93406661,-82.6805387,79300,80266,159566
26149,St. Joseph ,Michigan,41.91444552,-85.52776353,30259,30638,60897
26151,Sanilac ,Michigan,43.42359717,-82.8201355,20534,20842,41376
26153,Schoolcraft ,Michigan,46.19655666,-86.19965631,3984,4085,8069
26155,Shiawassee ,Michigan,42.95373653,-84.14672752,33801,34692,68493
26157,Tuscola ,Michigan,43.46452228,-83.41688333,26732,26518,53250
26159,Van Buren ,Michigan,42.25130635,-86.01894507,37429,37843,75272
26161,Washtenaw ,Michigan,42.25321807,-83.83876488,181376,184585,365961
26163,Wayne ,Michigan,42.28185696,-83.28210347,847648,913734,1761382
26165,Wexford ,Michigan,44.33833429,-85.57843748,16567,16544,33111
27001,Aitkin ,Minnesota,46.60822844,-93.41542609,8053,7781,15834
27003,Anoka ,Minnesota,45.27325655,-93.24647728,173811,173620,347431
27005,Becker ,Minnesota,46.93464855,-95.67396493,16783,16990,33773
27007,Beltrami ,Minnesota,47.97375423,-94.93765106,22906,23211,46117
27009,Benton ,Minnesota,45.69910576,-93.99882915,19894,19885,39779
27011,Big Stone ,Minnesota,45.42610195,-96.41094242,2477,2539,5016
27013,Blue Earth ,Minnesota,44.03458692,-94.06700987,33323,32999,66322
27015,Brown ,Minnesota,44.24213685,-94.72759343,12653,12558,25211
27017,Carlton ,Minnesota,46.59240866,-92.67703396,18565,16975,35540
27019,Carver ,Minnesota,44.82079018,-93.80259867,49793,50623,100416
27021,Cass ,Minnesota,46.9495938,-94.32537161,14798,14224,29022
27023,Chippewa ,Minnesota,45.02233286,-95.56669432,5959,6051,12010
27025,Chisago ,Minnesota,45.50246011,-92.90833137,28333,26394,54727
27027,Clay ,Minnesota,46.89235047,-96.49064955,31010,31791,62801
27029,Clearwater ,Minnesota,47.57754185,-95.37902556,4504,4308,8812
27031,Cook ,Minnesota,47.90256751,-90.53463546,2632,2679,5311
27033,Cottonwood ,Minnesota,44.00712526,-95.18119515,5662,5710,11372
27035,Crow Wing ,Minnesota,46.48244515,-94.07089871,31966,31889,63855
27037,Dakota ,Minnesota,44.67187042,-93.0654345,205909,212292,418201
27039,Dodge ,Minnesota,44.02260692,-92.86204695,10334,10248,20582
27041,Douglas ,Minnesota,45.93372358,-95.45352828,18607,18596,37203
27043,Faribault ,Minnesota,43.67391956,-93.94792869,6949,6947,13896
27045,Fillmore ,Minnesota,43.67395263,-92.09016617,10491,10397,20888
27047,Freeborn ,Minnesota,43.67380835,-93.3488208,15217,15309,30526
27049,Goodhue ,Minnesota,44.40986492,-92.72257215,23093,23124,46217
27051,Grant ,Minnesota,45.93405115,-96.01217476,3020,2918,5938
27053,Hennepin ,Minnesota,45.00457459,-93.47688798,610530,624948,1235478
27055,Houston ,Minnesota,43.67143647,-91.49288529,9349,9314,18663
27057,Hubbard ,Minnesota,47.10863791,-94.91663733,10550,10312,20862
27059,Isanti ,Minnesota,45.56148675,-93.2951355,19720,19254,38974
27061,Itasca ,Minnesota,47.50951027,-93.63197435,22913,22290,45203
27063,Jackson ,Minnesota,43.67411861,-95.15401904,5069,4978,10047
27065,Kanabec ,Minnesota,45.94518746,-93.2933699,8133,7871,16004
27067,Kandiyohi ,Minnesota,45.15236884,-95.00471728,21430,21228,42658
27069,Kittson ,Minnesota,48.77663057,-96.7828665,2199,2138,4337
27071,Koochiching ,Minnesota,48.24530142,-93.78333507,6327,6317,12644
27073,Lac qui Parle ,Minnesota,44.99547443,-96.17351558,3377,3396,6773
27075,Lake ,Minnesota,47.6409276,-91.44572875,5428,5141,10569
27077,Lake of the Woods ,Minnesota,48.77124932,-94.90456674,2037,1772,3809
27079,Le Sueur ,Minnesota,44.37143504,-93.73009898,14106,13877,27983
27081,Lincoln ,Minnesota,44.4126079,-96.26711247,2855,2852,5707
27083,Lyon ,Minnesota,44.41353259,-95.83901226,12788,13051,25839
27085,McLeod ,Minnesota,44.82355663,-94.27240089,17922,17903,35825
27087,Mahnomen ,Minnesota,47.32530992,-95.8090424,2728,2778,5506
27089,Marshall ,Minnesota,48.35811552,-96.3684452,4761,4631,9392
27091,Martin ,Minnesota,43.67431506,-94.55116401,10068,9896,19964
27093,Meeker ,Minnesota,45.12310434,-94.52732169,11727,11352,23079
27095,Mille Lacs ,Minnesota,45.93802704,-93.63007492,12866,12862,25728
27097,Morrison ,Minnesota,46.01261826,-94.26839131,16639,16310,32949
27099,Mower ,Minnesota,43.6714314,-92.75252927,20045,19557,39602
27101,Murray ,Minnesota,44.02216246,-95.76327372,4170,4183,8353
27103,Nicollet ,Minnesota,44.34988168,-94.24739496,16937,16846,33783
27105,Nobles ,Minnesota,43.67423332,-95.75336596,11236,10603,21839
27107,Norman ,Minnesota,47.3264632,-96.4552898,3324,3235,6559
27109,Olmsted ,Minnesota,44.00375957,-92.40175127,74836,78229,153065
27111,Otter Tail ,Minnesota,46.40880097,-95.70799387,29263,28729,57992
27113,Pennington ,Minnesota,48.06623221,-96.03669991,7054,7130,14184
27115,Pine ,Minnesota,46.12075694,-92.74133481,15648,13481,29129
27117,Pipestone ,Minnesota,44.02300876,-96.25864868,4441,4744,9185
27119,Polk ,Minnesota,47.77386177,-96.40187411,15967,15624,31591
27121,Pope ,Minnesota,45.58600155,-95.4445026,5562,5418,10980
27123,Ramsey ,Minnesota,45.01705737,-93.09961132,263843,277650,541493
27125,Red Lake ,Minnesota,47.87168987,-96.09534974,2034,1974,4008
27127,Redwood ,Minnesota,44.40366443,-95.25383934,7719,7612,15331
27129,Renville ,Minnesota,44.72681384,-94.94711956,7495,7226,14721
27131,Rice ,Minnesota,44.35425702,-93.29668219,33580,32185,65765
27133,Rock ,Minnesota,43.67469049,-96.25320594,4625,4788,9413
27135,Roseau ,Minnesota,48.77511409,-95.81083396,8003,7459,15462
27137,St. Louis ,Minnesota,47.60315654,-92.47063162,100487,99593,200080
27139,Scott ,Minnesota,44.64846543,-93.53589331,71406,71966,143372
27141,Sherburne ,Minnesota,45.4439426,-93.77458965,47673,45558,93231
27143,Sibley ,Minnesota,44.57949766,-94.23212717,7570,7342,14912
27145,Stearns ,Minnesota,45.55214395,-94.61301735,78931,77888,156819
27147,Steele ,Minnesota,44.02234102,-93.22604753,18171,18505,36676
27149,Stevens ,Minnesota,45.58612258,-96.00030566,4910,4874,9784
27151,Swift ,Minnesota,45.28268658,-95.68144096,4726,4685,9411
27153,Todd ,Minnesota,46.07061358,-94.89759096,12563,11877,24440
27155,Traverse ,Minnesota,45.77217847,-96.47159116,1644,1693,3337
27157,Wabasha ,Minnesota,44.28429393,-92.23027086,10779,10721,21500
27159,Wadena ,Minnesota,46.58576477,-94.96939499,6727,6919,13646
27161,Waseca ,Minnesota,44.02211443,-93.5872685,9000,9809,18809
27163,Washington ,Minnesota,45.03869826,-92.88393502,125332,127985,253317
27165,Watonwan ,Minnesota,43.97843767,-94.61407412,5408,5565,10973
27167,Wilkin ,Minnesota,46.35706126,-96.46832595,3215,3128,6343
27169,Winona ,Minnesota,43.98684965,-91.77915639,25191,25656,50847
27171,Wright ,Minnesota,45.17394987,-93.96305477,66913,65832,132745
27173,Yellow Medicine ,Minnesota,44.71624862,-95.86836214,5056,4812,9868
28001,Adams ,Mississippi,31.48288992,-91.35354065,16217,15330,31547
28003,Alcorn ,Mississippi,34.88081004,-88.58026289,18287,18893,37180
28005,Amite ,Mississippi,31.17442643,-90.80441712,6007,6461,12468
28007,Attala ,Mississippi,33.08627828,-89.58150817,8826,9755,18581
28009,Benton ,Mississippi,34.8172935,-89.18846406,4122,4131,8253
28011,Bolivar ,Mississippi,33.79558181,-90.88036126,15365,17227,32592
28013,Calhoun ,Mississippi,33.93646015,-89.33645597,6991,7580,14571
28015,Carroll ,Mississippi,33.44852758,-89.92018118,5116,5013,10129
28017,Chickasaw ,Mississippi,33.92079496,-88.947856,8331,8948,17279
28019,Choctaw ,Mississippi,33.34730044,-89.24837937,4174,4147,8321
28021,Claiborne ,Mississippi,31.97366193,-90.91177432,4312,4808,9120
28023,Clarke ,Mississippi,32.04138036,-88.6894293,7443,8485,15928
28025,Clay ,Mississippi,33.65564608,-88.78154772,9177,10631,19808
28027,Coahoma ,Mississippi,34.22918304,-90.60268275,11006,12796,23802
28029,Copiah ,Mississippi,31.86925182,-90.4487759,13704,15017,28721
28031,Covington ,Mississippi,31.6331971,-89.55263057,9252,9839,19091
28033,DeSoto ,Mississippi,34.87539586,-89.9918203,85174,90958,176132
28035,Forrest ,Mississippi,31.18889043,-89.25786593,35944,39573,75517
28037,Franklin ,Mississippi,31.47716458,-90.89790393,3706,4051,7757
28039,George ,Mississippi,30.86256298,-88.64397202,12008,11702,23710
28041,Greene ,Mississippi,31.21422826,-88.63917309,8294,5420,13714
28043,Grenada ,Mississippi,33.76985667,-89.80189907,10103,11175,21278
28045,Hancock ,Mississippi,30.41600618,-89.48851199,22779,23874,46653
28047,Harrison ,Mississippi,30.51184601,-89.11592523,99750,102876,202626
28049,Hinds ,Mississippi,32.26670043,-90.44284956,112877,128897,241774
28051,Holmes ,Mississippi,33.12353533,-90.09205496,8635,9440,18075
28053,Humphreys ,Mississippi,33.12865911,-90.52661097,3990,4549,8539
28055,Issaquena ,Mississippi,32.74140933,-90.98918635,807,521,1328
28057,Itawamba ,Mississippi,34.27998204,-88.36130636,11821,11659,23480
28059,Jackson ,Mississippi,30.54229725,-88.63570055,70065,71949,142014
28061,Jasper ,Mississippi,32.01912853,-89.11883672,8048,8481,16529
28063,Jefferson ,Mississippi,31.73427883,-91.03734354,3642,3704,7346
28065,Jefferson Davis ,Mississippi,31.56966594,-89.82299813,5543,5952,11495
28067,Jones ,Mississippi,31.62255149,-89.16881293,33352,35102,68454
28069,Kemper ,Mississippi,32.75457986,-88.64116921,5170,4937,10107
28071,Lafayette ,Mississippi,34.35674501,-89.48490772,25974,27485,53459
28073,Lamar ,Mississippi,31.20600688,-89.50866272,29243,31980,61223
28075,Lauderdale ,Mississippi,32.40426904,-88.66255119,37617,39706,77323
28077,Lawrence ,Mississippi,31.55017919,-90.10700088,6130,6500,12630
28079,Leake ,Mississippi,32.75351997,-89.52402352,11533,11337,22870
28081,Lee ,Mississippi,34.28990058,-88.68041851,40526,44389,84915
28083,Leflore ,Mississippi,33.55053813,-90.30108353,13916,15888,29804
28085,Lincoln ,Mississippi,31.53239244,-90.45400798,16255,18177,34432
28087,Lowndes ,Mississippi,33.47294137,-88.44331637,28365,31072,59437
28089,Madison ,Mississippi,32.63472693,-90.033696,49524,53974,103498
28091,Marion ,Mississippi,31.2308529,-89.82243548,12230,12972,25202
28093,Marshall ,Mississippi,34.7622819,-89.50306493,17736,18051,35787
28095,Monroe ,Mississippi,33.89226658,-88.48048216,17107,18733,35840
28097,Montgomery ,Mississippi,33.49398595,-89.61636879,4769,5429,10198
28099,Neshoba ,Mississippi,32.75348009,-89.11756548,13988,15388,29376
28101,Newton ,Mississippi,32.40023895,-89.11879432,10142,11382,21524
28103,Noxubee ,Mississippi,33.11015679,-88.56975391,5127,5701,10828
28105,Oktibbeha ,Mississippi,33.42495679,-88.87933353,24863,24618,49481
28107,Panola ,Mississippi,34.36390856,-89.95055954,16549,17694,34243
28109,Pearl River ,Mississippi,30.76883572,-89.58961899,27263,27886,55149
28111,Perry ,Mississippi,31.17202414,-88.99233716,5845,6183,12028
28113,Pike ,Mississippi,31.17484998,-90.40417607,18836,20901,39737
28115,Pontotoc ,Mississippi,34.22543951,-89.03739576,15304,16011,31315
28117,Prentiss ,Mississippi,34.61828123,-88.52007387,12304,13056,25360
28119,Quitman ,Mississippi,34.25139532,-90.28909958,3476,3896,7372
28121,Rankin ,Mississippi,32.26413027,-89.94579288,73041,78199,151240
28123,Scott ,Mississippi,32.40638545,-89.53763031,13870,14545,28415
28125,Sharkey ,Mississippi,32.8798711,-90.81315445,2147,2364,4511
28127,Simpson ,Mississippi,31.91315924,-89.91950001,13115,13958,27073
28129,Smith ,Mississippi,32.01768185,-89.50668014,7847,8216,16063
28131,Stone ,Mississippi,30.78996736,-89.11766734,9367,9008,18375
28133,Sunflower ,Mississippi,33.60227012,-90.58863552,13927,12605,26532
28135,Tallahatchie ,Mississippi,33.95047228,-90.17322935,8012,6349,14361
28137,Tate ,Mississippi,34.65032888,-89.94478702,13828,14665,28493
28139,Tippah ,Mississippi,34.76835416,-88.90889375,10673,11317,21990
28141,Tishomingo ,Mississippi,34.74039816,-88.239291,9491,9987,19478
28143,Tunica ,Mississippi,34.65197972,-90.3755026,4659,5511,10170
28145,Union ,Mississippi,34.49047737,-89.00386208,13942,14414,28356
28147,Walthall ,Mississippi,31.14842189,-90.10613781,7108,7493,14601
28149,Warren ,Mississippi,32.35726298,-90.85199213,22428,24647,47075
28151,Washington ,Mississippi,33.28378114,-90.94748707,22018,25068,47086
28153,Wayne ,Mississippi,31.64078874,-88.6958152,10072,10350,20422
28155,Webster ,Mississippi,33.61310083,-89.28480254,4788,5040,9828
28157,Wilkinson ,Mississippi,31.16107979,-91.31092617,4816,4174,8990
28159,Winston ,Mississippi,33.08850353,-89.03441456,8942,9416,18358
28161,Yalobusha ,Mississippi,34.02816003,-89.70768041,6085,6336,12421
28163,Yazoo ,Mississippi,32.78032626,-90.39642131,15543,12431,27974
29001,Adair ,Missouri,40.19057911,-92.60071921,12215,13110,25325
29003,Andrew ,Missouri,39.98353756,-94.80209503,8720,8683,17403
29005,Atchison ,Missouri,40.43081915,-95.42808898,2615,2655,5270
29007,Audrain ,Missouri,39.21573642,-91.84156315,11768,13967,25735
29009,Barry ,Missouri,36.70986228,-93.82905567,17823,17670,35493
29011,Barton ,Missouri,37.50232143,-94.34712534,5865,5985,11850
29013,Bates ,Missouri,38.25726018,-94.3400228,8014,8360,16374
29015,Benton ,Missouri,38.29484861,-93.28792737,9354,9635,18989
29017,Bollinger ,Missouri,37.3221838,-90.02592435,6140,6141,12281
29019,Boone ,Missouri,38.99061664,-92.30967501,85827,90688,176515
29021,Buchanan ,Missouri,39.65978627,-94.80588685,44691,44385,89076
29023,Butler ,Missouri,36.71641166,-90.40657485,20823,21910,42733
29025,Caldwell ,Missouri,39.65573553,-93.98269339,4585,4464,9049
29027,Callaway ,Missouri,38.83551113,-91.92603002,22874,21966,44840
29029,Camden ,Missouri,38.02702727,-92.7660399,22328,22768,45096
29031,Cape Girardeau ,Missouri,37.38402569,-89.68446694,37932,40392,78324
29033,Carroll ,Missouri,39.42698629,-93.50517645,4330,4513,8843
29035,Carter ,Missouri,36.94123568,-90.96234244,3010,3187,6197
29037,Cass ,Missouri,38.6469872,-94.35489154,50364,52314,102678
29039,Cedar ,Missouri,37.72385237,-93.85660176,6961,6977,13938
29041,Chariton ,Missouri,39.51509121,-92.96263864,3764,3782,7546
29043,Christian ,Missouri,36.96956914,-93.18885852,40995,43280,84275
29045,Clark ,Missouri,40.41033793,-91.73835443,3447,3353,6800
29047,Clay ,Missouri,39.31050762,-94.42088561,117296,121868,239164
29049,Clinton ,Missouri,39.60177278,-94.40458455,10266,10209,20475
29051,Cole ,Missouri,38.50540705,-92.28163958,38731,38009,76740
29053,Cooper ,Missouri,38.84354526,-92.81010853,9214,8408,17622
29055,Crawford ,Missouri,37.97635704,-91.30394012,11969,12311,24280
29057,Dade ,Missouri,37.43206461,-93.85026948,3884,3706,7590
29059,Dallas ,Missouri,37.68041979,-93.02367037,8212,8287,16499
29061,Daviess ,Missouri,39.96076035,-93.98549168,4187,4115,8302
