{
	"COUNTY": [
	{
		"fips": "1001",
		"county": "Autauga County",
		"state": "Alabama",
		"state_code": "AL",
		"male": "26874",
		"female": "28326",
		"median_age": "37.8",
		"population": "55200",
		"female_percentage": "51.315217391304344",
		"lat": "32.53492293292812",
		"long": "-86.64273013739468"
	},
	{
		"fips": "1003",
		"county": "Baldwin County",
		"state": "Alabama",
		"state_code": "AL",
		"male": "101188",
		"female": "106919",
		"median_age": "42.8",
		"population": "208107",
		"female_percentage": "51.3769359031652",
		"lat": "30.72747876693927",
		"long": "-87.72256353282204"
	},
	{
		"fips": "1005",
		"county": "Barbour County",
		"state": "Alabama",
		"state_code": "AL",
		"male": "13697",
		"female": "12085",
		"median_age": "39.9",
		"population": "25782",
		"female_percentage": "46.873787914048556",
		"lat": "31.869581438362314",
		"long": "-85.39320978902569"
	},
	{
		"fips": "1007",
		"county": "Bibb County",
		"state": "Alabama",
		"state_code": "AL",
		"male": "12152",
		"female": "10375",
		"median_age": "39.9",
		"population": "22527",
		"female_percentage": "46.055844098193276",
		"lat": "32.998628228925845",
		"long": "-87.12647507182314"
	},
	{
		"fips": "1009",
		"county": "Blount County",
		"state": "Alabama",
		"state_code": "AL",
		"male": "28434",
		"female": "29211",
		"median_age": "40.8",
		"population": "57645",
		"female_percentage": "50.673952641165755",
		"lat": "33.98086883066284",
		"long": "-86.56738039931867"
	},
	{
		"fips": "1011",
		"county": "Bullock County",
		"state": "Alabama",
		"state_code": "AL",
		"male": "5663",
		"female": "4689",
		"median_age": "39.6",
		"population": "10352",
		"female_percentage": "45.29559505409583",
		"lat": "32.10052546439408",
		"long": "-85.71567933028645"
	},
	{
		"fips": "1013",
		"county": "Butler County",
		"state": "Alabama",
		"state_code": "AL",
		"male": "9368",
		"female": "10657",
		"median_age": "40.7",
		"population": "20025",
		"female_percentage": "53.21847690387016",
		"lat": "31.752429155671948",
		"long": "-86.68027562242744"
	},
	{
		"fips": "1015",
		"county": "Calhoun County",
		"state": "Alabama",
		"state_code": "AL",
		"male": "55315",
		"female": "59783",
		"median_age": "39.7",
		"population": "115098",
		"female_percentage": "51.94095466472049",
		"lat": "33.771415664670144",
		"long": "-85.82603921906548"
	},
	{
		"fips": "1017",
		"county": "Chambers County",
		"state": "Alabama",
		"state_code": "AL",
		"male": "16257",
		"female": "17569",
		"median_age": "43",
		"population": "33826",
		"female_percentage": "51.939336604978415",
		"lat": "32.91434535110719",
		"long": "-85.39203021569158"
	},
	{
		"fips": "1019",
		"county": "Cherokee County",
		"state": "Alabama",
		"state_code": "AL",
		"male": "12820",
		"female": "13033",
		"median_age": "45.9",
		"population": "25853",
		"female_percentage": "50.41194445518895",
		"lat": "34.17590465311609",
		"long": "-85.60380095916831"
	},
	{
		"fips": "1021",
		"county": "Chilton County",
		"state": "Alabama",
		"state_code": "AL",
		"male": "21672",
		"female": "22258",
		"median_age": "38.6",
		"population": "43930",
		"female_percentage": "50.66697017983155",
		"lat": "32.84786730790755",
		"long": "-86.71879022444824"
	},
	{
		"fips": "1023",
		"county": "Choctaw County",
		"state": "Alabama",
		"state_code": "AL",
		"male": "6253",
		"female": "6822",
		"median_age": "46.1",
		"population": "13075",
		"female_percentage": "52.175908221797314",
		"lat": "32.019771720975655",
		"long": "-88.26317980997915"
	},
	{
		"fips": "1025",
		"county": "Clarke County",
		"state": "Alabama",
		"state_code": "AL",
		"male": "11539",
		"female": "12848",
		"median_age": "42.3",
		"population": "24387",
		"female_percentage": "52.68380694632386",
		"lat": "31.67667781209924",
		"long": "-87.83080861554338"
	},
	{
		"fips": "1027",
		"county": "Clay County",
		"state": "Alabama",
		"state_code": "AL",
		"male": "6464",
		"female": "6914",
		"median_age": "43.7",
		"population": "13378",
		"female_percentage": "51.68186574973838",
		"lat": "33.26902359843214",
		"long": "-85.8605790173855"
	},
	{
		"fips": "1029",
		"county": "Cleburne County",
		"state": "Alabama",
		"state_code": "AL",
		"male": "7281",
		"female": "7657",
		"median_age": "42.5",
		"population": "14938",
		"female_percentage": "51.25853527915384",
		"lat": "33.67451320426218",
		"long": "-85.51880933254934"
	},
	{
		"fips": "1031",
		"county": "Coffee County",
		"state": "Alabama",
		"state_code": "AL",
		"male": "25314",
		"female": "25974",
		"median_age": "39.3",
		"population": "51288",
		"female_percentage": "50.643425362657936",
		"lat": "31.402649421681172",
		"long": "-85.98815267828464"
	},
	{
		"fips": "1033",
		"county": "Colbert County",
		"state": "Alabama",
		"state_code": "AL",
		"male": "26075",
		"female": "28420",
		"median_age": "42.7",
		"population": "54495",
		"female_percentage": "52.15157353885678",
		"lat": "34.700470938378004",
		"long": "-87.80492780624994"
	},
	{
		"fips": "1035",
		"county": "Conecuh County",
		"state": "Alabama",
		"state_code": "AL",
		"male": "6037",
		"female": "6477",
		"median_age": "44.8",
		"population": "12514",
		"female_percentage": "51.7580310052741",
		"lat": "31.42923693025014",
		"long": "-86.99366150725562"
	},
	{
		"fips": "1037",
		"county": "Coosa County",
		"state": "Alabama",
		"state_code": "AL",
		"male": "5501",
		"female": "5354",
		"median_age": "46.9",
		"population": "10855",
		"female_percentage": "49.32289267618609",
		"lat": "32.93624304249333",
		"long": "-86.24766160001144"
	},
	{
		"fips": "1039",
		"county": "Covington County",
		"state": "Alabama",
		"state_code": "AL",
		"male": "18172",
		"female": "19179",
		"median_age": "43.9",
		"population": "37351",
		"female_percentage": "51.348022810634255",
		"lat": "31.248491453552955",
		"long": "-86.45126684432357"
	},
	{
		"fips": "1041",
		"county": "Crenshaw County",
		"state": "Alabama",
		"state_code": "AL",
		"male": "6814",
		"female": "7051",
		"median_age": "41.5",
		"population": "13865",
		"female_percentage": "50.85467003245583",
		"lat": "31.731518503686406",
		"long": "-86.31354750864885"
	},
	{
		"fips": "1043",
		"county": "Cullman County",
		"state": "Alabama",
		"state_code": "AL",
		"male": "40560",
		"female": "41753",
		"median_age": "40.6",
		"population": "82313",
		"female_percentage": "50.72467289492547",
		"lat": "34.1319452282297",
		"long": "-86.86757572060472"
	},
	{
		"fips": "1045",
		"county": "Dale County",
		"state": "Alabama",
		"state_code": "AL",
		"male": "24234",
		"female": "25021",
		"median_age": "37.5",
		"population": "49255",
		"female_percentage": "50.79890366460258",
		"lat": "31.431810191228635",
		"long": "-85.61100443496244"
	},
	{
		"fips": "1047",
		"county": "Dallas County",
		"state": "Alabama",
		"state_code": "AL",
		"male": "18448",
		"female": "21581",
		"median_age": "39.5",
		"population": "40029",
		"female_percentage": "53.91341277573759",
		"lat": "32.32597925878849",
		"long": "-87.10646900303215"
	},
	{
		"fips": "1049",
		"county": "DeKalb County",
		"state": "Alabama",
		"state_code": "AL",
		"male": "35304",
		"female": "35896",
		"median_age": "39.3",
		"population": "71200",
		"female_percentage": "50.41573033707866",
		"lat": "34.45980033140949",
		"long": "-85.80410976896026"
	},
	{
		"fips": "1051",
		"county": "Elmore County",
		"state": "Alabama",
		"state_code": "AL",
		"male": "39450",
		"female": "41762",
		"median_age": "38.6",
		"population": "81212",
		"female_percentage": "51.42343496035069",
		"lat": "32.5966474982654",
		"long": "-86.14915715534637"
	},
	{
		"fips": "1053",
		"county": "Escambia County",
		"state": "Alabama",
		"state_code": "AL",
		"male": "19067",
		"female": "18261",
		"median_age": "39.7",
		"population": "37328",
		"female_percentage": "48.92038148306901",
		"lat": "31.126134749153067",
		"long": "-87.16158196121191"
	},
	{
		"fips": "1055",
		"county": "Etowah County",
		"state": "Alabama",
		"state_code": "AL",
		"male": "49651",
		"female": "53288",
		"median_age": "41.3",
		"population": "102939",
		"female_percentage": "51.766580207695824",
		"lat": "34.04525667023056",
		"long": "-86.03476332697053"
	},
	{
		"fips": "1057",
		"county": "Fayette County",
		"state": "Alabama",
		"state_code": "AL",
		"male": "8170",
		"female": "8415",
		"median_age": "43.8",
		"population": "16585",
		"female_percentage": "50.738619234247814",
		"lat": "33.72122226409212",
		"long": "-87.73885770883655"
	},
	{
		"fips": "1059",
		"county": "Franklin County",
		"state": "Alabama",
		"state_code": "AL",
		"male": "15602",
		"female": "15940",
		"median_age": "37.6",
		"population": "31542",
		"female_percentage": "50.53579354511445",
		"lat": "34.44169229734741",
		"long": "-87.84373462807847"
	},
	{
		"fips": "1061",
		"county": "Geneva County",
		"state": "Alabama",
		"state_code": "AL",
		"male": "12971",
		"female": "13520",
		"median_age": "42.4",
		"population": "26491",
		"female_percentage": "51.03620097391567",
		"lat": "31.09505484802003",
		"long": "-85.83909144612956"
	},
	{
		"fips": "1063",
		"county": "Greene County",
		"state": "Alabama",
		"state_code": "AL",
		"male": "3950",
		"female": "4476",
		"median_age": "42.5",
		"population": "8426",
		"female_percentage": "53.12129124139568",
		"lat": "32.85314775662932",
		"long": "-87.95220353329152"
	},
	{
		"fips": "1065",
		"county": "Hale County",
		"state": "Alabama",
		"state_code": "AL",
		"male": "7019",
		"female": "7868",
		"median_age": "39.2",
		"population": "14887",
		"female_percentage": "52.85148115805737",
		"lat": "32.76266345818609",
		"long": "-87.62914936651768"
	},
	{
		"fips": "1067",
		"county": "Henry County",
		"state": "Alabama",
		"state_code": "AL",
		"male": "8232",
		"female": "8892",
		"median_age": "44.1",
		"population": "17124",
		"female_percentage": "51.92711983181499",
		"lat": "31.514705303567382",
		"long": "-85.24141340693765"
	},
	{
		"fips": "1069",
		"county": "Houston County",
		"state": "Alabama",
		"state_code": "AL",
		"male": "50029",
		"female": "54323",
		"median_age": "39.8",
		"population": "104352",
		"female_percentage": "52.05745936829194",
		"lat": "31.153200882578385",
		"long": "-85.30247404303597"
	},
	{
		"fips": "1071",
		"county": "Jackson County",
		"state": "Alabama",
		"state_code": "AL",
		"male": "25536",
		"female": "26558",
		"median_age": "43.3",
		"population": "52094",
		"female_percentage": "50.98091910776673",
		"lat": "34.779455582420226",
		"long": "-85.99935398499625"
	},
	{
		"fips": "1073",
		"county": "Jefferson County",
		"state": "Alabama",
		"state_code": "AL",
		"male": "312348",
		"female": "347544",
		"median_age": "37.7",
		"population": "659892",
		"female_percentage": "52.66680002182176",
		"lat": "33.554334499008306",
		"long": "-86.89640830636715"
	},
	{
		"fips": "1075",
		"county": "Lamar County",
		"state": "Alabama",
		"state_code": "AL",
		"male": "6800",
		"female": "7133",
		"median_age": "44.5",
		"population": "13933",
		"female_percentage": "51.195004665183376",
		"lat": "33.779135388691884",
		"long": "-88.09695812677022"
	},
	{
		"fips": "1077",
		"county": "Lauderdale County",
		"state": "Alabama",
		"state_code": "AL",
		"male": "44315",
		"female": "48270",
		"median_age": "41.4",
		"population": "92585",
		"female_percentage": "52.13587514176162",
		"lat": "34.90140732669629",
		"long": "-87.6540096469209"
	},
	{
		"fips": "1079",
		"county": "Lawrence County",
		"state": "Alabama",
		"state_code": "AL",
		"male": "16003",
		"female": "17168",
		"median_age": "42.2",
		"population": "33171",
		"female_percentage": "51.75605197310904",
		"lat": "34.52167795535142",
		"long": "-87.31099055710466"
	},
	{
		"fips": "1081",
		"county": "Lee County",
		"state": "Alabama",
		"state_code": "AL",
		"male": "78372",
		"female": "80915",
		"median_age": "31.4",
		"population": "159287",
		"female_percentage": "50.79824467784565",
		"lat": "32.6011356475738",
		"long": "-85.35547858790139"
	},
	{
		"fips": "1083",
		"county": "Limestone County",
		"state": "Alabama",
		"state_code": "AL",
		"male": "46427",
		"female": "46625",
		"median_age": "39.5",
		"population": "93052",
		"female_percentage": "50.10639212483342",
		"lat": "34.81010128499645",
		"long": "-86.98140593250632"
	},
	{
		"fips": "1085",
		"county": "Lowndes County",
		"state": "Alabama",
		"state_code": "AL",
		"male": "4830",
		"female": "5406",
		"median_age": "41.6",
		"population": "10236",
		"female_percentage": "52.81359906213364",
		"lat": "32.15474570310732",
		"long": "-86.6501082344093"
	},
	{
		"fips": "1087",
		"county": "Macon County",
		"state": "Alabama",
		"state_code": "AL",
		"male": "8790",
		"female": "10264",
		"median_age": "38",
		"population": "19054",
		"female_percentage": "53.86795423533116",
		"lat": "32.385938660091554",
		"long": "-85.6926557982763"
	},
	{
		"fips": "1089",
		"county": "Madison County",
		"state": "Alabama",
		"state_code": "AL",
		"male": "174665",
		"female": "182895",
		"median_age": "38.5",
		"population": "357560",
		"female_percentage": "51.1508558004251",
		"lat": "34.76309047358268",
		"long": "-86.55022471636639"
	},
	{
		"fips": "1091",
		"county": "Marengo County",
		"state": "Alabama",
		"state_code": "AL",
		"male": "9446",
		"female": "10092",
		"median_age": "42.7",
		"population": "19538",
		"female_percentage": "51.65318865799979",
		"lat": "32.247665493391004",
		"long": "-87.78953082031431"
	},
	{
		"fips": "1093",
		"county": "Marion County",
		"state": "Alabama",
		"state_code": "AL",
		"male": "14898",
		"female": "15067",
		"median_age": "44.3",
		"population": "29965",
		"female_percentage": "50.28199566160521",
		"lat": "34.13655552248483",
		"long": "-87.88713524898684"
	},
	{
		"fips": "1095",
		"county": "Marshall County",
		"state": "Alabama",
		"state_code": "AL",
		"male": "46977",
		"female": "48168",
		"median_age": "38.7",
		"population": "95145",
		"female_percentage": "50.625886804351254",
		"lat": "34.366952496948166",
		"long": "-86.30662784816178"
	},
	{
		"fips": "1097",
		"county": "Mobile County",
		"state": "Alabama",
		"state_code": "AL",
		"male": "197928",
		"female": "216731",
		"median_age": "37.6",
		"population": "414659",
		"female_percentage": "52.26728468452391",
		"lat": "30.78721220095308",
		"long": "-88.20579885923952"
	},
	{
		"fips": "1099",
		"county": "Monroe County",
		"state": "Alabama",
		"state_code": "AL",
		"male": "10230",
		"female": "11282",
		"median_age": "42.3",
		"population": "21512",
		"female_percentage": "52.44514689475641",
		"lat": "31.57087541673853",
		"long": "-87.36543633099075"
	},
	{
		"fips": "1101",
		"county": "Montgomery County",
		"state": "Alabama",
		"state_code": "AL",
		"male": "107354",
		"female": "119587",
		"median_age": "36.2",
		"population": "226941",
		"female_percentage": "52.69519390502377",
		"lat": "32.22026379800926",
		"long": "-86.20761816571864"
	},
	{
		"fips": "1103",
		"county": "Morgan County",
		"state": "Alabama",
		"state_code": "AL",
		"male": "58660",
		"female": "60462",
		"median_age": "40.4",
		"population": "119122",
		"female_percentage": "50.75636742163496",
		"lat": "34.453468312593614",
		"long": "-86.85292482831042"
	},
	{
		"fips": "1105",
		"county": "Perry County",
		"state": "Alabama",
		"state_code": "AL",
		"male": "4436",
		"female": "5050",
		"median_age": "37.7",
		"population": "9486",
		"female_percentage": "53.23634830276196",
		"lat": "32.63846919400472",
		"long": "-87.29440144079504"
	},
	{
		"fips": "1107",
		"county": "Pickens County",
		"state": "Alabama",
		"state_code": "AL",
		"male": "9708",
		"female": "10590",
		"median_age": "42.4",
		"population": "20298",
		"female_percentage": "52.17262784510789",
		"lat": "33.28079282373015",
		"long": "-88.0887508065939"
	},
	{
		"fips": "1109",
		"county": "Pike County",
		"state": "Alabama",
		"state_code": "AL",
		"male": "16027",
		"female": "17376",
		"median_age": "30.8",
		"population": "33403",
		"female_percentage": "52.01927970541568",
		"lat": "31.802723141778166",
		"long": "-85.94091891113248"
	},
	{
		"fips": "1111",
		"county": "Randolph County",
		"state": "Alabama",
		"state_code": "AL",
		"male": "10989",
		"female": "11585",
		"median_age": "42.7",
		"population": "22574",
		"female_percentage": "51.320102773101794",
		"lat": "33.293784770971065",
		"long": "-85.4591287871211"
	},
	{
		"fips": "1113",
		"county": "Russell County",
		"state": "Alabama",
		"state_code": "AL",
		"male": "28124",
		"female": "30089",
		"median_age": "35.9",
		"population": "58213",
		"female_percentage": "51.687767337192724",
		"lat": "32.28839324253349",
		"long": "-85.18492486749624"
	},
	{
		"fips": "1115",
		"county": "St. Clair County",
		"state": "Alabama",
		"state_code": "AL",
		"male": "43755",
		"female": "43551",
		"median_age": "40.3",
		"population": "87306",
		"female_percentage": "49.88316954161226",
		"lat": "33.71571863517987",
		"long": "-86.31461907158442"
	},
	{
		"fips": "1117",
		"county": "Shelby County",
		"state": "Alabama",
		"state_code": "AL",
		"male": "102478",
		"female": "108783",
		"median_age": "38.9",
		"population": "211261",
		"female_percentage": "51.49222999039104",
		"lat": "33.264277601125",
		"long": "-86.66066541307319"
	},
	{
		"fips": "1119",
		"county": "Sumter County",
		"state": "Alabama",
		"state_code": "AL",
		"male": "6014",
		"female": "6971",
		"median_age": "35.8",
		"population": "12985",
		"female_percentage": "53.68502117828263",
		"lat": "32.59105735171712",
		"long": "-88.19884604374238"
	},
	{
		"fips": "1121",
		"county": "Talladega County",
		"state": "Alabama",
		"state_code": "AL",
		"male": "39156",
		"female": "41409",
		"median_age": "41.1",
		"population": "80565",
		"female_percentage": "51.3982498603612",
		"lat": "33.38007938419927",
		"long": "-86.16588537343468"
	},
	{
		"fips": "1123",
		"county": "Tallapoosa County",
		"state": "Alabama",
		"state_code": "AL",
		"male": "19517",
		"female": "21119",
		"median_age": "43.7",
		"population": "40636",
		"female_percentage": "51.97115857860025",
		"lat": "32.862350624195244",
		"long": "-85.79750899281659"
	},
	{
		"fips": "1125",
		"county": "Tuscaloosa County",
		"state": "Alabama",
		"state_code": "AL",
		"male": "99539",
		"female": "106674",
		"median_age": "32.7",
		"population": "206213",
		"female_percentage": "51.730007322525736",
		"lat": "33.289569418404746",
		"long": "-87.52510914909692"
	},
	{
		"fips": "1127",
		"county": "Walker County",
		"state": "Alabama",
		"state_code": "AL",
		"male": "31506",
		"female": "32987",
		"median_age": "42.4",
		"population": "64493",
		"female_percentage": "51.14818662490502",
		"lat": "33.803311239964835",
		"long": "-87.29732387115185"
	},
	{
		"fips": "1129",
		"county": "Washington County",
		"state": "Alabama",
		"state_code": "AL",
		"male": "8420",
		"female": "8223",
		"median_age": "43.6",
		"population": "16643",
		"female_percentage": "49.408159586612996",
		"lat": "31.407628945666268",
		"long": "-88.2078573131082"
	},
	{
		"fips": "1131",
		"county": "Wilcox County",
		"state": "Alabama",
		"state_code": "AL",
		"male": "5134",
		"female": "5675",
		"median_age": "40.8",
		"population": "10809",
		"female_percentage": "52.5025441761495",
		"lat": "31.9892967512008",
		"long": "-87.3081903348858"
	},
	{
		"fips": "1133",
		"county": "Winston County",
		"state": "Alabama",
		"state_code": "AL",
		"male": "11840",
		"female": "12035",
		"median_age": "44.9",
		"population": "23875",
		"female_percentage": "50.40837696335079",
		"lat": "34.149199476400526",
		"long": "-87.37366306792178"
	},
	{
		"fips": "2013",
		"county": "Aleutians East Borough",
		"state": "Alaska",
		"state_code": "AK",
		"male": "1989",
		"female": "1436",
		"median_age": "42.7",
		"population": "3425",
		"female_percentage": "41.92700729927007",
		"lat": "55.366507119927775",
		"long": "-161.98133032549518"
	},
	{
		"fips": "2016",
		"county": "Aleutians West Census Area",
		"state": "Alaska",
		"state_code": "AK",
		"male": "3432",
		"female": "2318",
		"median_age": "37.6",
		"population": "5750",
		"female_percentage": "40.313043478260866",
		"lat": "52.79799631626673",
		"long": "-106.6060599709953"
	},
	{
		"fips": "2020",
		"county": "Anchorage Municipality",
		"state": "Alaska",
		"state_code": "AK",
		"male": "151144",
		"female": "144968",
		"median_age": "33.2",
		"population": "296112",
		"female_percentage": "48.957151348138545",
		"lat": "61.15082529528075",
		"long": "-149.10911748236057"
	},
	{
		"fips": "2050",
		"county": "Bethel Census Area",
		"state": "Alaska",
		"state_code": "AK",
		"male": "9381",
		"female": "8659",
		"median_age": "27.1",
		"population": "18040",
		"female_percentage": "47.99889135254989",
		"lat": "60.91323080377408",
		"long": "-159.81801735140064"
	},
	{
		"fips": "2060",
		"county": "Bristol Bay Borough",
		"state": "Alaska",
		"state_code": "AK",
		"male": "526",
		"female": "364",
		"median_age": "41.8",
		"population": "890",
		"female_percentage": "40.89887640449438",
		"lat": "58.743863607996126",
		"long": "-156.69997745651224"
	},
	{
		"fips": "2068",
		"county": "Denali Borough",
		"state": "Alaska",
		"state_code": "AK",
		"male": "1117",
		"female": "1115",
		"median_age": "43.1",
		"population": "2232",
		"female_percentage": "49.95519713261648",
		"lat": "63.67164250515982",
		"long": "-150.01171591832534"
	},
	{
		"fips": "2070",
		"county": "Dillingham Census Area",
		"state": "Alaska",
		"state_code": "AK",
		"male": "2573",
		"female": "2402",
		"median_age": "30.3",
		"population": "4975",
		"female_percentage": "48.281407035175874",
		"lat": "59.79906654221384",
		"long": "-158.23508954298393"
	},
	{
		"fips": "2090",
		"county": "Fairbanks North Star Borough",
		"state": "Alaska",
		"state_code": "AK",
		"male": "53846",
		"female": "45807",
		"median_age": "31.1",
		"population": "99653",
		"female_percentage": "45.96650376807522",
		"lat": "64.80776532872335",
		"long": "-146.56541139175178"
	},
	{
		"fips": "2100",
		"county": "Haines Borough",
		"state": "Alaska",
		"state_code": "AK",
		"male": "1335",
		"female": "1183",
		"median_age": "44.9",
		"population": "2518",
		"female_percentage": "46.98173153296267",
		"lat": "59.119879251212865",
		"long": "-135.49995278001106"
	},
	{
		"fips": "2105",
		"county": "Hoonah-Angoon Census Area",
		"state": "Alaska",
		"state_code": "AK",
		"male": "1095",
		"female": "1037",
		"median_age": "50.2",
		"population": "2132",
		"female_percentage": "48.63977485928706",
		"lat": "58.28835669160423",
		"long": "-135.64299333971147"
	},
	{
		"fips": "2110",
		"county": "Juneau City and Borough",
		"state": "Alaska",
		"state_code": "AK",
		"male": "16517",
		"female": "15813",
		"median_age": "38.1",
		"population": "32330",
		"female_percentage": "48.91122796164553",
		"lat": "58.454630545695714",
		"long": "-134.17394176905708"
	},
	{
		"fips": "2122",
		"county": "Kenai Peninsula Borough",
		"state": "Alaska",
		"state_code": "AK",
		"male": "30314",
		"female": "27906",
		"median_age": "40.8",
		"population": "58220",
		"female_percentage": "47.93198213672278",
		"lat": "60.26541331965089",
		"long": "-151.56524389617178"
	},
	{
		"fips": "2130",
		"county": "Ketchikan Gateway Borough",
		"state": "Alaska",
		"state_code": "AK",
		"male": "7060",
		"female": "6744",
		"median_age": "39.6",
		"population": "13804",
		"female_percentage": "48.855404230657776",
		"lat": "55.585161705719884",
		"long": "-130.9288092651757"
	},
	{
		"fips": "2150",
		"county": "Kodiak Island Borough",
		"state": "Alaska",
		"state_code": "AK",
		"male": "7281",
		"female": "6368",
		"median_age": "33.5",
		"population": "13649",
		"female_percentage": "46.655432632427285",
		"lat": "57.67704281101999",
		"long": "-153.7805822874154"
	},
	{
		"fips": "2158",
		"county": "Kusilvak Census Area",
		"state": "Alaska",
		"state_code": "AK",
		"male": "4388",
		"female": "3810",
		"median_age": "23.8",
		"population": "8198",
		"female_percentage": "46.47474993900951",
		"lat": "62.155020175005554",
		"long": "-163.3826213573158"
	},
	{
		"fips": "2164",
		"county": "Lake and Peninsula Borough",
		"state": "Alaska",
		"state_code": "AK",
		"male": "710",
		"female": "665",
		"median_age": "33.5",
		"population": "1375",
		"female_percentage": "48.36363636363637",
		"lat": "58.65291903396709",
		"long": "-156.18684615195298"
	},
	{
		"fips": "2170",
		"county": "Matanuska-Susitna Borough",
		"state": "Alaska",
		"state_code": "AK",
		"male": "53912",
		"female": "49552",
		"median_age": "35",
		"population": "103464",
		"female_percentage": "47.8929869326529",
		"lat": "62.31621988849926",
		"long": "-149.57141297916502"
	},
	{
		"fips": "2180",
		"county": "Nome Census Area",
		"state": "Alaska",
		"state_code": "AK",
		"male": "5240",
		"female": "4685",
		"median_age": "28.1",
		"population": "9925",
		"female_percentage": "47.20403022670025",
		"lat": "64.91109214261573",
		"long": "-164.02721167914007"
	},
	{
		"fips": "2185",
		"county": "North Slope Borough",
		"state": "Alaska",
		"state_code": "AK",
		"male": "6116",
		"female": "3681",
		"median_age": "34.8",
		"population": "9797",
		"female_percentage": "37.57272634479943",
		"lat": "69.31214959526797",
		"long": "-153.48104285015563"
	},
	{
		"fips": "2188",
		"county": "Northwest Arctic Borough",
		"state": "Alaska",
		"state_code": "AK",
		"male": "4156",
		"female": "3578",
		"median_age": "27.2",
		"population": "7734",
		"female_percentage": "46.26325316783036",
		"lat": "67.05300866513784",
		"long": "-159.7210157747925"
	},
	{
		"fips": "2195",
		"county": "Petersburg Borough",
		"state": "Alaska",
		"state_code": "AK",
		"male": "1649",
		"female": "1606",
		"median_age": "41",
		"population": "3255",
		"female_percentage": "49.3394777265745",
		"lat": "57.11951010750548",
		"long": "-132.93445731871802"
	},
	{
		"fips": "2198",
		"county": "Prince of Wales-Hyder Census Area",
		"state": "Alaska",
		"state_code": "AK",
		"male": "3514",
		"female": "2960",
		"median_age": "41",
		"population": "6474",
		"female_percentage": "45.7213469261662",
		"lat": "55.79972761062095",
		"long": "-133.01919913685245"
	},
	{
		"fips": "2220",
		"county": "Sitka City and Borough",
		"state": "Alaska",
		"state_code": "AK",
		"male": "4471",
		"female": "4267",
		"median_age": "38.8",
		"population": "8738",
		"female_percentage": "48.83268482490272",
		"lat": "57.240076864015315",
		"long": "-135.31525107951913"
	},
	{
		"fips": "2230",
		"county": "Skagway Municipality",
		"state": "Alaska",
		"state_code": "AK",
		"male": "555",
		"female": "506",
		"median_age": "38.5",
		"population": "1061",
		"female_percentage": "47.69085768143261",
		"lat": "59.56296555756638",
		"long": "-135.33625689690177"
	},
	{
		"fips": "2240",
		"county": "Southeast Fairbanks Census Area",
		"state": "Alaska",
		"state_code": "AK",
		"male": "3779",
		"female": "3097",
		"median_age": "36.3",
		"population": "6876",
		"female_percentage": "45.04072134962187",
		"lat": "63.8763245627724",
		"long": "-143.21181328851824"
	},
	{
		"fips": "2261",
		"county": "Valdez-Cordova Census Area",
		"state": "Alaska",
		"state_code": "AK",
		"male": "4898",
		"female": "4403",
		"median_age": "39",
		"population": "9301",
		"female_percentage": "47.33899580690248",
		"lat": "61.561955115598806",
		"long": "-144.46863096113148"
	},
	{
		"fips": "2275",
		"county": "Wrangell City and Borough",
		"state": "Alaska",
		"state_code": "AK",
		"male": "1302",
		"female": "1182",
		"median_age": "49.5",
		"population": "2484",
		"female_percentage": "47.58454106280193",
		"lat": "56.3317189736256",
		"long": "-132.02230502679723"
	},
	{
		"fips": "2282",
		"county": "Yakutat City and Borough",
		"state": "Alaska",
		"state_code": "AK",
		"male": "369",
		"female": "320",
		"median_age": "36.4",
		"population": "689",
		"female_percentage": "46.44412191582003",
		"lat": "59.8888952260802",
		"long": "-140.3576872639421"
	},
	{
		"fips": "2290",
		"county": "Yukon-Koyukuk Census Area",
		"state": "Alaska",
		"state_code": "AK",
		"male": "2910",
		"female": "2505",
		"median_age": "35.3",
		"population": "5415",
		"female_percentage": "46.26038781163435",
		"lat": "65.50864462116017",
		"long": "-151.38963204423874"
	},
	{
		"fips": "4001",
		"county": "Apache County",
		"state": "Arizona",
		"state_code": "AZ",
		"male": "35240",
		"female": "36282",
		"median_age": "34.7",
		"population": "71522",
		"female_percentage": "50.728447191074075",
		"lat": "35.39552646734953",
		"long": "-109.48882230843972"
	},
	{
		"fips": "4003",
		"county": "Cochise County",
		"state": "Arizona",
		"state_code": "AZ",
		"male": "64135",
		"female": "62144",
		"median_age": "40.6",
		"population": "126279",
		"female_percentage": "49.21166623112315",
		"lat": "31.879608041942266",
		"long": "-109.7511676614067"
	},
	{
		"fips": "4005",
		"county": "Coconino County",
		"state": "Arizona",
		"state_code": "AZ",
		"male": "68918",
		"female": "71299",
		"median_age": "30.6",
		"population": "140217",
		"female_percentage": "50.84904112910703",
		"lat": "35.83874597791365",
		"long": "-111.77049137835488"
	},
	{
		"fips": "4007",
		"county": "Gila County",
		"state": "Arizona",
		"state_code": "AZ",
		"male": "26370",
		"female": "27030",
		"median_age": "49.7",
		"population": "53400",
		"female_percentage": "50.61797752808989",
		"lat": "33.79975176644272",
		"long": "-110.81171010722184"
	},
	{
		"fips": "4009",
		"county": "Graham County",
		"state": "Arizona",
		"state_code": "AZ",
		"male": "20330",
		"female": "17549",
		"median_age": "33.3",
		"population": "37879",
		"female_percentage": "46.32910055703688",
		"lat": "32.932699874990206",
		"long": "-109.8873887474133"
	},
	{
		"fips": "4011",
		"county": "Greenlee County",
		"state": "Arizona",
		"state_code": "AZ",
		"male": "5064",
		"female": "4440",
		"median_age": "34.2",
		"population": "9504",
		"female_percentage": "46.717171717171716",
		"lat": "33.21523492222133",
		"long": "-109.24012820437055"
	},
	{
		"fips": "4012",
		"county": "La Paz County",
		"state": "Arizona",
		"state_code": "AZ",
		"male": "10677",
		"female": "10024",
		"median_age": "56",
		"population": "20701",
		"female_percentage": "48.42278150813971",
		"lat": "33.729243716591746",
		"long": "-113.98132415701498"
	},
	{
		"fips": "4013",
		"county": "Maricopa County",
		"state": "Arizona",
		"state_code": "AZ",
		"male": "2104145",
		"female": "2149768",
		"median_age": "36.1",
		"population": "4253913",
		"female_percentage": "50.536247450288705",
		"lat": "33.348815944399796",
		"long": "-112.49129136326741"
	},
	{
		"fips": "4015",
		"county": "Mohave County",
		"state": "Arizona",
		"state_code": "AZ",
		"male": "104047",
		"female": "102017",
		"median_age": "50.9",
		"population": "206064",
		"female_percentage": "49.507434583430395",
		"lat": "35.704095159106224",
		"long": "-113.75795269664282"
	},
	{
		"fips": "4017",
		"county": "Navajo County",
		"state": "Arizona",
		"state_code": "AZ",
		"male": "54533",
		"female": "54172",
		"median_age": "36.4",
		"population": "108705",
		"female_percentage": "49.83395427993192",
		"lat": "35.39965744024454",
		"long": "-110.32140142426282"
	},
	{
		"fips": "4019",
		"county": "Pima County",
		"state": "Arizona",
		"state_code": "AZ",
		"male": "501879",
		"female": "517843",
		"median_age": "38.3",
		"population": "1019722",
		"female_percentage": "50.78276236072185",
		"lat": "32.097427295651826",
		"long": "-111.78990488515119"
	},
	{
		"fips": "4021",
		"county": "Pinal County",
		"state": "Arizona",
		"state_code": "AZ",
		"male": "219048",
		"female": "200673",
		"median_age": "38.9",
		"population": "419721",
		"female_percentage": "47.81104590906817",
		"lat": "32.90439176331561",
		"long": "-111.34467078195728"
	},
	{
		"fips": "4023",
		"county": "Santa Cruz County",
		"state": "Arizona",
		"state_code": "AZ",
		"male": "22285",
		"female": "24299",
		"median_age": "36.6",
		"population": "46584",
		"female_percentage": "52.161686415936806",
		"lat": "31.526025213071254",
		"long": "-110.84658768144405"
	},
	{
		"fips": "4025",
		"county": "Yavapai County",
		"state": "Arizona",
		"state_code": "AZ",
		"male": "109795",
		"female": "114850",
		"median_age": "52.9",
		"population": "224645",
		"female_percentage": "51.12510850452937",
		"lat": "34.59990365784673",
		"long": "-112.55390468776022"
	},
	{
		"fips": "4027",
		"county": "Yuma County",
		"state": "Arizona",
		"state_code": "AZ",
		"male": "106973",
		"female": "100856",
		"median_age": "34.3",
		"population": "207829",
		"female_percentage": "48.52835744770941",
		"lat": "32.76937662032427",
		"long": "-113.9055555770482"
	},
	{
		"fips": "5001",
		"county": "Arkansas County",
		"state": "Arkansas",
		"state_code": "AR",
		"male": "8733",
		"female": "9391",
		"median_age": "41.4",
		"population": "18124",
		"female_percentage": "51.8152725667623",
		"lat": "34.29080705580511",
		"long": "-91.37490973290751"
	},
	{
		"fips": "5003",
		"county": "Ashley County",
		"state": "Arkansas",
		"state_code": "AR",
		"male": "10013",
		"female": "10524",
		"median_age": "41.7",
		"population": "20537",
		"female_percentage": "51.244096021814286",
		"lat": "33.19121135472734",
		"long": "-91.7684577361982"
	},
	{
		"fips": "5005",
		"county": "Baxter County",
		"state": "Arkansas",
		"state_code": "AR",
		"male": "19992",
		"female": "21227",
		"median_age": "52.1",
		"population": "41219",
		"female_percentage": "51.49809553846527",
		"lat": "36.287208404293814",
		"long": "-92.33695011949514"
	},
	{
		"fips": "5007",
		"county": "Benton County",
		"state": "Arkansas",
		"state_code": "AR",
		"male": "128399",
		"female": "130581",
		"median_age": "35.3",
		"population": "258980",
		"female_percentage": "50.421268051587",
		"lat": "36.33872438847401",
		"long": "-94.25619693381994"
	},
	{
		"fips": "5009",
		"county": "Boone County",
		"state": "Arkansas",
		"state_code": "AR",
		"male": "18350",
		"female": "18938",
		"median_age": "42.4",
		"population": "37288",
		"female_percentage": "50.788457412572406",
		"lat": "36.30859114677833",
		"long": "-93.09153441501978"
	},
	{
		"fips": "5011",
		"county": "Bradley County",
		"state": "Arkansas",
		"state_code": "AR",
		"male": "5214",
		"female": "5734",
		"median_age": "40.2",
		"population": "10948",
		"female_percentage": "52.37486298867373",
		"lat": "33.466419933345364",
		"long": "-92.16239823980503"
	},
	{
		"fips": "5013",
		"county": "Calhoun County",
		"state": "Arkansas",
		"state_code": "AR",
		"male": "2607",
		"female": "2595",
		"median_age": "45.5",
		"population": "5202",
		"female_percentage": "49.884659746251444",
		"lat": "33.55803127288699",
		"long": "-92.50304686890513"
	},
	{
		"fips": "5015",
		"county": "Carroll County",
		"state": "Arkansas",
		"state_code": "AR",
		"male": "13897",
		"female": "13990",
		"median_age": "44.8",
		"population": "27887",
		"female_percentage": "50.16674436117188",
		"lat": "36.34101968375258",
		"long": "-93.53823819549703"
	},
	{
		"fips": "5017",
		"county": "Chicot County",
		"state": "Arkansas",
		"state_code": "AR",
		"male": "5266",
		"female": "5560",
		"median_age": "42.7",
		"population": "10826",
		"female_percentage": "51.357842231664506",
		"lat": "33.267214828807525",
		"long": "-91.29398176784412"
	},
	{
		"fips": "5019",
		"county": "Clark County",
		"state": "Arkansas",
		"state_code": "AR",
		"male": "10628",
		"female": "11757",
		"median_age": "34.1",
		"population": "22385",
		"female_percentage": "52.521777976323435",
		"lat": "34.050970670851605",
		"long": "-93.17636676689386"
	},
	{
		"fips": "5021",
		"county": "Clay County",
		"state": "Arkansas",
		"state_code": "AR",
		"male": "7414",
		"female": "7647",
		"median_age": "43",
		"population": "15061",
		"female_percentage": "50.77352101454087",
		"lat": "36.36827122549728",
		"long": "-90.41755750692674"
	},
	{
		"fips": "5023",
		"county": "Cleburne County",
		"state": "Arkansas",
		"state_code": "AR",
		"male": "12472",
		"female": "12758",
		"median_age": "49.4",
		"population": "25230",
		"female_percentage": "50.56678557273088",
		"lat": "35.53810443735143",
		"long": "-92.02672750378929"
	},
	{
		"fips": "5025",
		"county": "Cleveland County",
		"state": "Arkansas",
		"state_code": "AR",
		"male": "4138",
		"female": "4088",
		"median_age": "42.7",
		"population": "8226",
		"female_percentage": "49.69608558230003",
		"lat": "33.89837312457409",
		"long": "-92.18518895706723"
	},
	{
		"fips": "5027",
		"county": "Columbia County",
		"state": "Arkansas",
		"state_code": "AR",
		"male": "11444",
		"female": "12448",
		"median_age": "36",
		"population": "23892",
		"female_percentage": "52.101121714381385",
		"lat": "33.21429832104757",
		"long": "-93.22731371345826"
	},
	{
		"fips": "5029",
		"county": "Conway County",
		"state": "Arkansas",
		"state_code": "AR",
		"male": "10182",
		"female": "10724",
		"median_age": "41.7",
		"population": "20906",
		"female_percentage": "51.29627858031187",
		"lat": "35.262246537380165",
		"long": "-92.70129382838729"
	},
	{
		"fips": "5031",
		"county": "Craighead County",
		"state": "Arkansas",
		"state_code": "AR",
		"male": "51528",
		"female": "54173",
		"median_age": "34.1",
		"population": "105701",
		"female_percentage": "51.25117075524357",
		"lat": "35.830780591727",
		"long": "-90.63283975822226"
	},
	{
		"fips": "5033",
		"county": "Crawford County",
		"state": "Arkansas",
		"state_code": "AR",
		"male": "30761",
		"female": "31711",
		"median_age": "38.7",
		"population": "62472",
		"female_percentage": "50.76034063260341",
		"lat": "35.58908630761966",
		"long": "-94.24282113342362"
	},
	{
		"fips": "5035",
		"county": "Crittenden County",
		"state": "Arkansas",
		"state_code": "AR",
		"male": "23271",
		"female": "25742",
		"median_age": "35.1",
		"population": "49013",
		"female_percentage": "52.520759798420826",
		"lat": "35.20794386122905",
		"long": "-90.30883835295963"
	},
	{
		"fips": "5037",
		"county": "Cross County",
		"state": "Arkansas",
		"state_code": "AR",
		"male": "8200",
		"female": "8798",
		"median_age": "41.2",
		"population": "16998",
		"female_percentage": "51.75903047417343",
		"lat": "35.295715218539506",
		"long": "-90.77121408620283"
	},
	{
		"fips": "5039",
		"county": "Dallas County",
		"state": "Arkansas",
		"state_code": "AR",
		"male": "3618",
		"female": "3814",
		"median_age": "43.7",
		"population": "7432",
		"female_percentage": "51.318622174381055",
		"lat": "33.96980985111147",
		"long": "-92.6544470456955"
	},
	{
		"fips": "5041",
		"county": "Desha County",
		"state": "Arkansas",
		"state_code": "AR",
		"male": "5623",
		"female": "6264",
		"median_age": "39.1",
		"population": "11887",
		"female_percentage": "52.69622276436443",
		"lat": "33.833284507105354",
		"long": "-91.25398249476531"
	},
	{
		"fips": "5043",
		"county": "Drew County",
		"state": "Arkansas",
		"state_code": "AR",
		"male": "9033",
		"female": "9469",
		"median_age": "37",
		"population": "18502",
		"female_percentage": "51.17825099989191",
		"lat": "33.58945379935467",
		"long": "-91.72001113881394"
	},
	{
		"fips": "5045",
		"county": "Faulkner County",
		"state": "Arkansas",
		"state_code": "AR",
		"male": "59911",
		"female": "62505",
		"median_age": "32.5",
		"population": "122416",
		"female_percentage": "51.05950202587897",
		"lat": "35.14698116792315",
		"long": "-92.33204545404496"
	},
	{
		"fips": "5047",
		"county": "Franklin County",
		"state": "Arkansas",
		"state_code": "AR",
		"male": "8675",
		"female": "9105",
		"median_age": "41.3",
		"population": "17780",
		"female_percentage": "51.209223847019125",
		"lat": "35.5123205449671",
		"long": "-93.89063726266791"
	},
	{
		"fips": "5049",
		"county": "Fulton County",
		"state": "Arkansas",
		"state_code": "AR",
		"male": "6048",
		"female": "6091",
		"median_age": "48.1",
		"population": "12139",
		"female_percentage": "50.1771150836148",
		"lat": "36.38165740451262",
		"long": "-91.81822518817465"
	},
	{
		"fips": "5051",
		"county": "Garland County",
		"state": "Arkansas",
		"state_code": "AR",
		"male": "47182",
		"female": "51114",
		"median_age": "44.9",
		"population": "98296",
		"female_percentage": "52.00008138683161",
		"lat": "34.57666777754009",
		"long": "-93.15041074296991"
	},
	{
		"fips": "5053",
		"county": "Grant County",
		"state": "Arkansas",
		"state_code": "AR",
		"male": "8870",
		"female": "9216",
		"median_age": "40.4",
		"population": "18086",
		"female_percentage": "50.956540970916734",
		"lat": "34.2900048788879",
		"long": "-92.42360628570306"
	},
	{
		"fips": "5055",
		"county": "Greene County",
		"state": "Arkansas",
		"state_code": "AR",
		"male": "21912",
		"female": "22711",
		"median_age": "37.9",
		"population": "44623",
		"female_percentage": "50.89527821975215",
		"lat": "36.117569212078195",
		"long": "-90.5589635978154"
	},
	{
		"fips": "5057",
		"county": "Hempstead County",
		"state": "Arkansas",
		"state_code": "AR",
		"male": "10494",
		"female": "11524",
		"median_age": "39.9",
		"population": "22018",
		"female_percentage": "52.338995367426655",
		"lat": "33.73532331512718",
		"long": "-93.66847440957207"
	},
	{
		"fips": "5059",
		"county": "Hot Spring County",
		"state": "Arkansas",
		"state_code": "AR",
		"male": "17418",
		"female": "16102",
		"median_age": "41.3",
		"population": "33520",
		"female_percentage": "48.036992840095465",
		"lat": "34.31762873758588",
		"long": "-92.94594016282792"
	},
	{
		"fips": "5061",
		"county": "Howard County",
		"state": "Arkansas",
		"state_code": "AR",
		"male": "6440",
		"female": "6949",
		"median_age": "38.8",
		"population": "13389",
		"female_percentage": "51.90081410112779",
		"lat": "34.08890648823255",
		"long": "-93.99357394904555"
	},
	{
		"fips": "5063",
		"county": "Independence County",
		"state": "Arkansas",
		"state_code": "AR",
		"male": "18092",
		"female": "19172",
		"median_age": "39.4",
		"population": "37264",
		"female_percentage": "51.449119793902966",
		"lat": "35.7415724849761",
		"long": "-91.56970871240067"
	},
	{
		"fips": "5065",
		"county": "Izard County",
		"state": "Arkansas",
		"state_code": "AR",
		"male": "7018",
		"female": "6541",
		"median_age": "48",
		"population": "13559",
		"female_percentage": "48.2410207242422",
		"lat": "36.09487010035818",
		"long": "-91.91340553189517"
	},
	{
		"fips": "5067",
		"county": "Jackson County",
		"state": "Arkansas",
		"state_code": "AR",
		"male": "8512",
		"female": "8713",
		"median_age": "39.9",
		"population": "17225",
		"female_percentage": "50.583454281567484",
		"lat": "35.59922211078086",
		"long": "-91.21456610285112"
	},
	{
		"fips": "5069",
		"county": "Jefferson County",
		"state": "Arkansas",
		"state_code": "AR",
		"male": "34906",
		"female": "35518",
		"median_age": "38.8",
		"population": "70424",
		"female_percentage": "50.434510962171984",
		"lat": "34.268782057801374",
		"long": "-91.93151808720087"
	},
	{
		"fips": "5071",
		"county": "Johnson County",
		"state": "Arkansas",
		"state_code": "AR",
		"male": "12976",
		"female": "13315",
		"median_age": "38",
		"population": "26291",
		"female_percentage": "50.64470731429006",
		"lat": "35.570064703742396",
		"long": "-93.45989301357979"
	},
	{
		"fips": "5073",
		"county": "Lafayette County",
		"state": "Arkansas",
		"state_code": "AR",
		"male": "3381",
		"female": "3534",
		"median_age": "46.3",
		"population": "6915",
		"female_percentage": "51.106290672451195",
		"lat": "33.24094545145252",
		"long": "-93.60705581045154"
	},
	{
		"fips": "5075",
		"county": "Lawrence County",
		"state": "Arkansas",
		"state_code": "AR",
		"male": "8270",
		"female": "8399",
		"median_age": "41.1",
		"population": "16669",
		"female_percentage": "50.38694582758414",
		"lat": "36.04122681848132",
		"long": "-91.10709583181772"
	},
	{
		"fips": "5077",
		"county": "Lee County",
		"state": "Arkansas",
		"state_code": "AR",
		"male": "5309",
		"female": "4089",
		"median_age": "41.8",
		"population": "9398",
		"female_percentage": "43.509257288784845",
		"lat": "34.78065178564233",
		"long": "-90.78212191166011"
	},
	{
		"fips": "5079",
		"county": "Lincoln County",
		"state": "Arkansas",
		"state_code": "AR",
		"male": "8590",
		"female": "5105",
		"median_age": "38.6",
		"population": "13695",
		"female_percentage": "37.27637824023366",
		"lat": "33.95744904396039",
		"long": "-91.73332986155597"
	},
	{
		"fips": "5081",
		"county": "Little River County",
		"state": "Arkansas",
		"state_code": "AR",
		"male": "6090",
		"female": "6327",
		"median_age": "42.6",
		"population": "12417",
		"female_percentage": "50.95433679632762",
		"lat": "33.700511447751154",
		"long": "-94.23434658306978"
	},
	{
		"fips": "5083",
		"county": "Logan County",
		"state": "Arkansas",
		"state_code": "AR",
		"male": "10643",
		"female": "11114",
		"median_age": "41.5",
		"population": "21757",
		"female_percentage": "51.0824102587673",
		"lat": "35.21527067849378",
		"long": "-93.71634187499376"
	},
	{
		"fips": "5085",
		"county": "Lonoke County",
		"state": "Arkansas",
		"state_code": "AR",
		"male": "35667",
		"female": "36539",
		"median_age": "36.1",
		"population": "72206",
		"female_percentage": "50.60382793673656",
		"lat": "34.754256224990016",
		"long": "-91.88867330213915"
	},
	{
		"fips": "5087",
		"county": "Madison County",
		"state": "Arkansas",
		"state_code": "AR",
		"male": "8038",
		"female": "8038",
		"median_age": "42.6",
		"population": "16076",
		"female_percentage": "50",
		"lat": "36.01095244456229",
		"long": "-93.72455118259842"
	},
	{
		"fips": "5089",
		"county": "Marion County",
		"state": "Arkansas",
		"state_code": "AR",
		"male": "7990",
		"female": "8448",
		"median_age": "51.7",
		"population": "16438",
		"female_percentage": "51.39311351745954",
		"lat": "36.26838614303282",
		"long": "-92.68422482746918"
	},
	{
		"fips": "5091",
		"county": "Miller County",
		"state": "Arkansas",
		"state_code": "AR",
		"male": "21476",
		"female": "22283",
		"median_age": "38.9",
		"population": "43759",
		"female_percentage": "50.92209602596037",
		"lat": "33.31209066913729",
		"long": "-93.8915527124611"
	},
	{
		"fips": "5093",
		"county": "Mississippi County",
		"state": "Arkansas",
		"state_code": "AR",
		"male": "20876",
		"female": "21955",
		"median_age": "36.2",
		"population": "42831",
		"female_percentage": "51.259601690364455",
		"lat": "35.76383359723019",
		"long": "-90.05420095067471"
	},
	{
		"fips": "5095",
		"county": "Monroe County",
		"state": "Arkansas",
		"state_code": "AR",
		"male": "3316",
		"female": "3933",
		"median_age": "47",
		"population": "7249",
		"female_percentage": "54.255759415091745",
		"lat": "34.67784528117564",
		"long": "-91.20390435091556"
	},
	{
		"fips": "5097",
		"county": "Montgomery County",
		"state": "Arkansas",
		"state_code": "AR",
		"male": "4440",
		"female": "4553",
		"median_age": "50",
		"population": "8993",
		"female_percentage": "50.62826642944513",
		"lat": "34.538810773692305",
		"long": "-93.65952878075149"
	},
	{
		"fips": "5099",
		"county": "Nevada County",
		"state": "Arkansas",
		"state_code": "AR",
		"male": "4425",
		"female": "4015",
		"median_age": "44.8",
		"population": "8440",
		"female_percentage": "47.57109004739337",
		"lat": "33.66396326977911",
		"long": "-93.30719905846298"
	},
	{
		"fips": "5101",
		"county": "Newton County",
		"state": "Arkansas",
		"state_code": "AR",
		"male": "3932",
		"female": "3916",
		"median_age": "49.1",
		"population": "7848",
		"female_percentage": "49.89806320081549",
		"lat": "35.91997205949455",
		"long": "-93.21786864539573"
	},
	{
		"fips": "5103",
		"county": "Ouachita County",
		"state": "Arkansas",
		"state_code": "AR",
		"male": "11327",
		"female": "12779",
		"median_age": "42.3",
		"population": "24106",
		"female_percentage": "53.011698332365384",
		"lat": "33.59335286839969",
		"long": "-92.88194022525765"
	},
	{
		"fips": "5105",
		"county": "Perry County",
		"state": "Arkansas",
		"state_code": "AR",
		"male": "5184",
		"female": "5138",
		"median_age": "43.5",
		"population": "10322",
		"female_percentage": "49.77717496609184",
		"lat": "34.94736989254756",
		"long": "-92.93144274100722"
	},
	{
		"fips": "5107",
		"county": "Phillips County",
		"state": "Arkansas",
		"state_code": "AR",
		"male": "9006",
		"female": "10028",
		"median_age": "38.5",
		"population": "19034",
		"female_percentage": "52.684669538720186",
		"lat": "34.42823805670895",
		"long": "-90.84806629246263"
	},
	{
		"fips": "5109",
		"county": "Pike County",
		"state": "Arkansas",
		"state_code": "AR",
		"male": "5346",
		"female": "5462",
		"median_age": "42.8",
		"population": "10808",
		"female_percentage": "50.53663952627683",
		"lat": "34.163521770981134",
		"long": "-93.65632702389284"
	},
	{
		"fips": "5111",
		"county": "Poinsett County",
		"state": "Arkansas",
		"state_code": "AR",
		"male": "11734",
		"female": "12320",
		"median_age": "39.7",
		"population": "24054",
		"female_percentage": "51.218092624927245",
		"lat": "35.574014785872826",
		"long": "-90.6629767541616"
	},
	{
		"fips": "5113",
		"county": "Polk County",
		"state": "Arkansas",
		"state_code": "AR",
		"male": "9828",
		"female": "10335",
		"median_age": "43.7",
		"population": "20163",
		"female_percentage": "51.25725338491296",
		"lat": "34.48591350460088",
		"long": "-94.22809399775852"
	},
	{
		"fips": "5115",
		"county": "Pope County",
		"state": "Arkansas",
		"state_code": "AR",
		"male": "31317",
		"female": "32327",
		"median_age": "35",
		"population": "63644",
		"female_percentage": "50.79347621142606",
		"lat": "35.44762758047479",
		"long": "-93.03415221892074"
	},
	{
		"fips": "5117",
		"county": "Prairie County",
		"state": "Arkansas",
		"state_code": "AR",
		"male": "4120",
		"female": "4124",
		"median_age": "46.2",
		"population": "8244",
		"female_percentage": "50.024260067928196",
		"lat": "34.8297985392543",
		"long": "-91.55279742630763"
	},
	{
		"fips": "5119",
		"county": "Pulaski County",
		"state": "Arkansas",
		"state_code": "AR",
		"male": "188496",
		"female": "204967",
		"median_age": "36.9",
		"population": "393463",
		"female_percentage": "52.093081179170596",
		"lat": "34.76994016662451",
		"long": "-92.3117837218999"
	},
	{
		"fips": "5121",
		"county": "Randolph County",
		"state": "Arkansas",
		"state_code": "AR",
		"male": "8784",
		"female": "8819",
		"median_age": "41.5",
		"population": "17603",
		"female_percentage": "50.09941487246492",
		"lat": "36.3414590326538",
		"long": "-91.02770853309575"
	},
	{
		"fips": "5123",
		"county": "St. Francis County",
		"state": "Arkansas",
		"state_code": "AR",
		"male": "14441",
		"female": "11853",
		"median_age": "38.9",
		"population": "26294",
		"female_percentage": "45.07872518445273",
		"lat": "35.022009561830515",
		"long": "-90.7477657706903"
	},
	{
		"fips": "5125",
		"county": "Saline County",
		"state": "Arkansas",
		"state_code": "AR",
		"male": "58030",
		"female": "59979",
		"median_age": "39.2",
		"population": "118009",
		"female_percentage": "50.825784474065536",
		"lat": "34.6465951571083",
		"long": "-92.67652322823821"
	},
	{
		"fips": "5127",
		"county": "Scott County",
		"state": "Arkansas",
		"state_code": "AR",
		"male": "5332",
		"female": "5110",
		"median_age": "41",
		"population": "10442",
		"female_percentage": "48.93698525186746",
		"lat": "34.86077478168221",
		"long": "-94.06323825597694"
	},
	{
		"fips": "5129",
		"county": "Searcy County",
		"state": "Arkansas",
		"state_code": "AR",
		"male": "3981",
		"female": "3942",
		"median_age": "47.6",
		"population": "7923",
		"female_percentage": "49.7538811056418",
		"lat": "35.91089957257719",
		"long": "-92.69950814142427"
	},
	{
		"fips": "5131",
		"county": "Sebastian County",
		"state": "Arkansas",
		"state_code": "AR",
		"male": "62274",
		"female": "65187",
		"median_age": "37.5",
		"population": "127461",
		"female_percentage": "51.14270247369783",
		"lat": "35.199660327844946",
		"long": "-94.27417847062952"
	},
	{
		"fips": "5133",
		"county": "Sevier County",
		"state": "Arkansas",
		"state_code": "AR",
		"male": "8607",
		"female": "8586",
		"median_age": "34.9",
		"population": "17193",
		"female_percentage": "49.93892863374629",
		"lat": "33.9971754119254",
		"long": "-94.24117760339227"
	},
	{
		"fips": "5135",
		"county": "Sharp County",
		"state": "Arkansas",
		"state_code": "AR",
		"male": "8335",
		"female": "8708",
		"median_age": "47.4",
		"population": "17043",
		"female_percentage": "51.09429091122455",
		"lat": "36.1611416259315",
		"long": "-91.47985751697682"
	},
	{
		"fips": "5137",
		"county": "Stone County",
		"state": "Arkansas",
		"state_code": "AR",
		"male": "6209",
		"female": "6237",
		"median_age": "49.8",
		"population": "12446",
		"female_percentage": "50.11248593925759",
		"lat": "35.859880281189255",
		"long": "-92.15670323495661"
	},
	{
		"fips": "5139",
		"county": "Union County",
		"state": "Arkansas",
		"state_code": "AR",
		"male": "19332",
		"female": "20400",
		"median_age": "40.1",
		"population": "39732",
		"female_percentage": "51.344004832376925",
		"lat": "33.17130192417115",
		"long": "-92.59726943648324"
	},
	{
		"fips": "5141",
		"county": "Van Buren County",
		"state": "Arkansas",
		"state_code": "AR",
		"male": "8284",
		"female": "8400",
		"median_age": "47.9",
		"population": "16684",
		"female_percentage": "50.34763845600575",
		"lat": "35.58064470282818",
		"long": "-92.5156838021102"
	},
	{
		"fips": "5143",
		"county": "Washington County",
		"state": "Arkansas",
		"state_code": "AR",
		"male": "114181",
		"female": "114348",
		"median_age": "31.8",
		"population": "228529",
		"female_percentage": "50.036538032372256",
		"lat": "35.97906307205256",
		"long": "-94.21557553246848"
	},
	{
		"fips": "5145",
		"county": "White County",
		"state": "Arkansas",
		"state_code": "AR",
		"male": "38751",
		"female": "40053",
		"median_age": "36.6",
		"population": "78804",
		"female_percentage": "50.82610019795949",
		"lat": "35.25627781090881",
		"long": "-91.74554960434645"
	},
	{
		"fips": "5147",
		"county": "Woodruff County",
		"state": "Arkansas",
		"state_code": "AR",
		"male": "3051",
		"female": "3609",
		"median_age": "45.6",
		"population": "6660",
		"female_percentage": "54.18918918918919",
		"lat": "35.186306413089426",
		"long": "-91.24305627869848"
	},
	{
		"fips": "5149",
		"county": "Yell County",
		"state": "Arkansas",
		"state_code": "AR",
		"male": "10782",
		"female": "10791",
		"median_age": "39.3",
		"population": "21573",
		"female_percentage": "50.02085940759282",
		"lat": "35.00261093322689",
		"long": "-93.41123285260815"
	},
	{
		"fips": "6001",
		"county": "Alameda County",
		"state": "California",
		"state_code": "CA",
		"male": "807171",
		"female": "836529",
		"median_age": "37.4",
		"population": "1643700",
		"female_percentage": "50.89304617630954",
		"lat": "37.646893227585394",
		"long": "-121.88886747655656"
	},
	{
		"fips": "6003",
		"county": "Alpine County",
		"state": "California",
		"state_code": "CA",
		"male": "612",
		"female": "534",
		"median_age": "44.3",
		"population": "1146",
		"female_percentage": "46.596858638743456",
		"lat": "38.59719676739881",
		"long": "-119.82066974618064"
	},
	{
		"fips": "6005",
		"county": "Amador County",
		"state": "California",
		"state_code": "CA",
		"male": "20302",
		"female": "17527",
		"median_age": "50.5",
		"population": "37829",
		"female_percentage": "46.33217901609876",
		"lat": "38.446391490362714",
		"long": "-120.65109333340908"
	},
	{
		"fips": "6007",
		"county": "Butte County",
		"state": "California",
		"state_code": "CA",
		"male": "112513",
		"female": "114562",
		"median_age": "37.1",
		"population": "227075",
		"female_percentage": "50.45117252009248",
		"lat": "39.6669353446951",
		"long": "-121.60068082611362"
	},
	{
		"fips": "6009",
		"county": "Calaveras County",
		"state": "California",
		"state_code": "CA",
		"male": "22434",
		"female": "22801",
		"median_age": "52.1",
		"population": "45235",
		"female_percentage": "50.40565933458605",
		"lat": "38.204595481696714",
		"long": "-120.55412801084056"
	},
	{
		"fips": "6011",
		"county": "Colusa County",
		"state": "California",
		"state_code": "CA",
		"male": "11124",
		"female": "10340",
		"median_age": "35.1",
		"population": "21464",
		"female_percentage": "48.1736861721953",
		"lat": "39.17748403490377",
		"long": "-122.23695912321347"
	},
	{
		"fips": "6013",
		"county": "Contra Costa County",
		"state": "California",
		"state_code": "CA",
		"male": "553701",
		"female": "579546",
		"median_age": "39.4",
		"population": "1133247",
		"female_percentage": "51.14030745283243",
		"lat": "37.91912233692718",
		"long": "-121.92778819106958"
	},
	{
		"fips": "6015",
		"county": "Del Norte County",
		"state": "California",
		"state_code": "CA",
		"male": "14575",
		"female": "12849",
		"median_age": "38.6",
		"population": "27424",
		"female_percentage": "46.853121353558926",
		"lat": "41.743134903278985",
		"long": "-123.8972400230872"
	},
	{
		"fips": "6017",
		"county": "El Dorado County",
		"state": "California",
		"state_code": "CA",
		"male": "93040",
		"female": "93621",
		"median_age": "45.8",
		"population": "186661",
		"female_percentage": "50.15562972447378",
		"lat": "38.77873549714167",
		"long": "-120.52465737213436"
	},
	{
		"fips": "6019",
		"county": "Fresno County",
		"state": "California",
		"state_code": "CA",
		"male": "487936",
		"female": "490194",
		"median_age": "32",
		"population": "978130",
		"female_percentage": "50.115424330099266",
		"lat": "36.758197639814554",
		"long": "-119.64930723709182"
	},
	{
		"fips": "6021",
		"county": "Glenn County",
		"state": "California",
		"state_code": "CA",
		"male": "14171",
		"female": "13726",
		"median_age": "36.6",
		"population": "27897",
		"female_percentage": "49.2024231996272",
		"lat": "39.59820149120442",
		"long": "-122.39199901384109"
	},
	{
		"fips": "6023",
		"county": "Humboldt County",
		"state": "California",
		"state_code": "CA",
		"male": "67666",
		"female": "68102",
		"median_age": "38",
		"population": "135768",
		"female_percentage": "50.16056802781215",
		"lat": "40.699297540642164",
		"long": "-123.87562886590823"
	},
	{
		"fips": "6025",
		"county": "Imperial County",
		"state": "California",
		"state_code": "CA",
		"male": "92250",
		"female": "87966",
		"median_age": "32.4",
		"population": "180216",
		"female_percentage": "48.81142628845386",
		"lat": "33.03951207342643",
		"long": "-115.36535115086141"
	},
	{
		"fips": "6027",
		"county": "Inyo County",
		"state": "California",
		"state_code": "CA",
		"male": "9084",
		"female": "9001",
		"median_age": "45.7",
		"population": "18085",
		"female_percentage": "49.770528061929774",
		"lat": "36.51111376104412",
		"long": "-117.41074797719436"
	},
	{
		"fips": "6029",
		"county": "Kern County",
		"state": "California",
		"state_code": "CA",
		"male": "452646",
		"female": "430407",
		"median_age": "31.5",
		"population": "883053",
		"female_percentage": "48.740789057961415",
		"lat": "35.342864363470284",
		"long": "-118.72991638751208"
	},
	{
		"fips": "6031",
		"county": "Kings County",
		"state": "California",
		"state_code": "CA",
		"male": "82674",
		"female": "67401",
		"median_age": "31.7",
		"population": "150075",
		"female_percentage": "44.911544227886054",
		"lat": "36.07534371008504",
		"long": "-119.81555065669141"
	},
	{
		"fips": "6033",
		"county": "Lake County",
		"state": "California",
		"state_code": "CA",
		"male": "31879",
		"female": "32269",
		"median_age": "45.6",
		"population": "64148",
		"female_percentage": "50.303984535761046",
		"lat": "39.09961720745284",
		"long": "-122.75318988686426"
	},
	{
		"fips": "6035",
		"county": "Lassen County",
		"state": "California",
		"state_code": "CA",
		"male": "20671",
		"female": "10514",
		"median_age": "36",
		"population": "31185",
		"female_percentage": "33.71492704826038",
		"lat": "40.673589098637045",
		"long": "-120.59431538478663"
	},
	{
		"fips": "6037",
		"county": "Los Angeles County",
		"state": "California",
		"state_code": "CA",
		"male": "4976788",
		"female": "5121264",
		"median_age": "36.2",
		"population": "10098052",
		"female_percentage": "50.71536569627489",
		"lat": "34.3207429592211",
		"long": "-118.22480998416322"
	},
	{
		"fips": "6039",
		"county": "Madera County",
		"state": "California",
		"state_code": "CA",
		"male": "74683",
		"female": "80330",
		"median_age": "33.9",
		"population": "155013",
		"female_percentage": "51.82146013560153",
		"lat": "37.21799210274101",
		"long": "-119.76267044541184"
	},
	{
		"fips": "6041",
		"county": "Marin County",
		"state": "California",
		"state_code": "CA",
		"male": "127113",
		"female": "133182",
		"median_age": "46.5",
		"population": "260295",
		"female_percentage": "51.16579265832997",
		"lat": "38.07338555626221",
		"long": "-122.72341555726418"
	},
	{
		"fips": "6043",
		"county": "Mariposa County",
		"state": "California",
		"state_code": "CA",
		"male": "8920",
		"female": "8620",
		"median_age": "51.4",
		"population": "17540",
		"female_percentage": "49.1448118586089",
		"lat": "37.58150820256936",
		"long": "-119.90542609837362"
	},
	{
		"fips": "6045",
		"county": "Mendocino County",
		"state": "California",
		"state_code": "CA",
		"male": "43439",
		"female": "43983",
		"median_age": "42.8",
		"population": "87422",
		"female_percentage": "50.31113449703736",
		"lat": "39.440224101662444",
		"long": "-123.39147262070482"
	},
	{
		"fips": "6047",
		"county": "Merced County",
		"state": "California",
		"state_code": "CA",
		"male": "135816",
		"female": "133259",
		"median_age": "30.9",
		"population": "269075",
		"female_percentage": "49.524853665334945",
		"lat": "37.191889864977696",
		"long": "-120.71765231288775"
	},
	{
		"fips": "6049",
		"county": "Modoc County",
		"state": "California",
		"state_code": "CA",
		"male": "4613",
		"female": "4325",
		"median_age": "47.7",
		"population": "8938",
		"female_percentage": "48.38890132020586",
		"lat": "41.58981656312058",
		"long": "-120.72501563385929"
	},
	{
		"fips": "6051",
		"county": "Mono County",
		"state": "California",
		"state_code": "CA",
		"male": "7341",
		"female": "6833",
		"median_age": "38.3",
		"population": "14174",
		"female_percentage": "48.207986454070834",
		"lat": "37.93908943424993",
		"long": "-118.8868431321968"
	},
	{
		"fips": "6053",
		"county": "Monterey County",
		"state": "California",
		"state_code": "CA",
		"male": "220967",
		"female": "212245",
		"median_age": "34.1",
		"population": "433212",
		"female_percentage": "48.993333518000426",
		"lat": "36.21715890998017",
		"long": "-121.23920059946273"
	},
	{
		"fips": "6055",
		"county": "Napa County",
		"state": "California",
		"state_code": "CA",
		"male": "70082",
		"female": "70448",
		"median_age": "41.1",
		"population": "140530",
		"female_percentage": "50.13022130505942",
		"lat": "38.506485447294324",
		"long": "-122.330518115176"
	},
	{
		"fips": "6057",
		"county": "Nevada County",
		"state": "California",
		"state_code": "CA",
		"male": "48889",
		"female": "50203",
		"median_age": "50.1",
		"population": "99092",
		"female_percentage": "50.66302022363056",
		"lat": "39.301363059753385",
		"long": "-120.76845107342851"
	},
	{
		"fips": "6059",
		"county": "Orange County",
		"state": "California",
		"state_code": "CA",
		"male": "1562429",
		"female": "1601753",
		"median_age": "37.8",
		"population": "3164182",
		"female_percentage": "50.62139282759336",
		"lat": "33.702972184170065",
		"long": "-117.7610700312427"
	},
	{
		"fips": "6061",
		"county": "Placer County",
		"state": "California",
		"state_code": "CA",
		"male": "185511",
		"female": "194566",
		"median_age": "41.9",
		"population": "380077",
		"female_percentage": "51.191205992469946",
		"lat": "39.06345956799667",
		"long": "-120.71755875765689"
	},
	{
		"fips": "6063",
		"county": "Plumas County",
		"state": "California",
		"state_code": "CA",
		"male": "9423",
		"female": "9276",
		"median_age": "52.2",
		"population": "18699",
		"female_percentage": "49.60693085191721",
		"lat": "40.004638434438725",
		"long": "-120.83854565296976"
	},
	{
		"fips": "6065",
		"county": "Riverside County",
		"state": "California",
		"state_code": "CA",
		"male": "1186188",
		"female": "1197098",
		"median_age": "35.3",
		"population": "2383286",
		"female_percentage": "50.228885664582435",
		"lat": "33.74366319247109",
		"long": "-115.99380653350666"
	},
	{
		"fips": "6067",
		"county": "Sacramento County",
		"state": "California",
		"state_code": "CA",
		"male": "737742",
		"female": "772281",
		"median_age": "36",
		"population": "1510023",
		"female_percentage": "51.14365807673128",
		"lat": "38.44931684885277",
		"long": "-121.34425336568765"
	},
	{
		"fips": "6069",
		"county": "San Benito County",
		"state": "California",
		"state_code": "CA",
		"male": "29626",
		"female": "29790",
		"median_age": "35.5",
		"population": "59416",
		"female_percentage": "50.138009963646155",
		"lat": "36.60569063230486",
		"long": "-121.0749692523152"
	},
	{
		"fips": "6071",
		"county": "San Bernardino County",
		"state": "California",
		"state_code": "CA",
		"male": "1062472",
		"female": "1072941",
		"median_age": "33.1",
		"population": "2135413",
		"female_percentage": "50.245128225781144",
		"lat": "34.84139921238718",
		"long": "-116.17840998570632"
	},
	{
		"fips": "6073",
		"county": "San Diego County",
		"state": "California",
		"state_code": "CA",
		"male": "1661931",
		"female": "1640902",
		"median_age": "35.6",
		"population": "3302833",
		"female_percentage": "49.681652084740584",
		"lat": "33.034136709370166",
		"long": "-116.73529293376947"
	},
	{
		"fips": "6075",
		"county": "San Francisco County",
		"state": "California",
		"state_code": "CA",
		"male": "443970",
		"female": "426074",
		"median_age": "38.2",
		"population": "870044",
		"female_percentage": "48.9715462666256",
		"lat": "37.75616436865513",
		"long": "-122.44304167780714"
	},
	{
		"fips": "6077",
		"county": "San Joaquin County",
		"state": "California",
		"state_code": "CA",
		"male": "364612",
		"female": "367600",
		"median_age": "34.1",
		"population": "732212",
		"female_percentage": "50.20403926731603",
		"lat": "37.93475478900825",
		"long": "-121.27139238365105"
	},
	{
		"fips": "6079",
		"county": "San Luis Obispo County",
		"state": "California",
		"state_code": "CA",
		"male": "142769",
		"female": "138686",
		"median_age": "39.1",
		"population": "281455",
		"female_percentage": "49.27466202412464",
		"lat": "35.38708293547382",
		"long": "-120.40451599116747"
	},
	{
		"fips": "6081",
		"county": "San Mateo County",
		"state": "California",
		"state_code": "CA",
		"male": "377851",
		"female": "388084",
		"median_age": "39.6",
		"population": "765935",
		"female_percentage": "50.66800707631849",
		"lat": "37.42289743059975",
		"long": "-122.3290165412804"
	},
	{
		"fips": "6083",
		"county": "Santa Barbara County",
		"state": "California",
		"state_code": "CA",
		"male": "222208",
		"female": "221530",
		"median_age": "33.7",
		"population": "443738",
		"female_percentage": "49.92360356787113",
		"lat": "34.67287988538718",
		"long": "-120.01647340776174"
	},
	{
		"fips": "6085",
		"county": "Santa Clara County",
		"state": "California",
		"state_code": "CA",
		"male": "970469",
		"female": "951731",
		"median_age": "37",
		"population": "1922200",
		"female_percentage": "49.51258974092186",
		"lat": "37.231785029812926",
		"long": "-121.69512630659516"
	},
	{
		"fips": "6087",
		"county": "Santa Cruz County",
		"state": "California",
		"state_code": "CA",
		"male": "135727",
		"female": "138038",
		"median_age": "37.4",
		"population": "273765",
		"female_percentage": "50.422077329096126",
		"lat": "37.05618848793641",
		"long": "-122.00184962661211"
	},
	{
		"fips": "6089",
		"county": "Shasta County",
		"state": "California",
		"state_code": "CA",
		"male": "87859",
		"female": "91226",
		"median_age": "41.8",
		"population": "179085",
		"female_percentage": "50.94005639779993",
		"lat": "40.76371326810639",
		"long": "-122.04049900154385"
	},
	{
		"fips": "6091",
		"county": "Sierra County",
		"state": "California",
		"state_code": "CA",
		"male": "1542",
		"female": "1388",
		"median_age": "55.5",
		"population": "2930",
		"female_percentage": "47.37201365187713",
		"lat": "39.580326202324656",
		"long": "-120.51599521126568"
	},
	{
		"fips": "6093",
		"county": "Siskiyou County",
		"state": "California",
		"state_code": "CA",
		"male": "21706",
		"female": "21834",
		"median_age": "48",
		"population": "43540",
		"female_percentage": "50.1469912723932",
		"lat": "41.592675402058475",
		"long": "-122.5403512604914"
	},
	{
		"fips": "6095",
		"county": "Solano County",
		"state": "California",
		"state_code": "CA",
		"male": "217931",
		"female": "220599",
		"median_age": "37.9",
		"population": "438530",
		"female_percentage": "50.30419811643445",
		"lat": "38.269972906847265",
		"long": "-121.93285185686703"
	},
	{
		"fips": "6097",
		"county": "Sonoma County",
		"state": "California",
		"state_code": "CA",
		"male": "245196",
		"female": "256121",
		"median_age": "41.7",
		"population": "501317",
		"female_percentage": "51.089629914804405",
		"lat": "38.52828658778606",
		"long": "-122.88740786017404"
	},
	{
		"fips": "6099",
		"county": "Stanislaus County",
		"state": "California",
		"state_code": "CA",
		"male": "266844",
		"female": "272457",
		"median_age": "34",
		"population": "539301",
		"female_percentage": "50.520395845733646",
		"lat": "37.559134084648015",
		"long": "-120.99768806978116"
	},
	{
		"fips": "6101",
		"county": "Sutter County",
		"state": "California",
		"state_code": "CA",
		"male": "47789",
		"female": "48083",
		"median_age": "35.7",
		"population": "95872",
		"female_percentage": "50.15332943925234",
		"lat": "39.03457772739615",
		"long": "-121.69484381678052"
	},
	{
		"fips": "6103",
		"county": "Tehama County",
		"state": "California",
		"state_code": "CA",
		"male": "31504",
		"female": "31869",
		"median_age": "40.9",
		"population": "63373",
		"female_percentage": "50.28797752986287",
		"lat": "40.12562627265812",
		"long": "-122.2340586020686"
	},
	{
		"fips": "6105",
		"county": "Trinity County",
		"state": "California",
		"state_code": "CA",
		"male": "6582",
		"female": "6280",
		"median_age": "51.8",
		"population": "12862",
		"female_percentage": "48.825999067019126",
		"lat": "40.65069929372209",
		"long": "-123.11263968581837"
	},
	{
		"fips": "6107",
		"county": "Tulare County",
		"state": "California",
		"state_code": "CA",
		"male": "230255",
		"female": "230222",
		"median_age": "30.8",
		"population": "460477",
		"female_percentage": "49.99641675914324",
		"lat": "36.22016551607714",
		"long": "-118.80048756434682"
	},
	{
		"fips": "6109",
		"county": "Tuolumne County",
		"state": "California",
		"state_code": "CA",
		"male": "28102",
		"female": "25830",
		"median_age": "48.4",
		"population": "53932",
		"female_percentage": "47.893643847808356",
		"lat": "38.027588914238436",
		"long": "-119.95475499078796"
	},
	{
		"fips": "6111",
		"county": "Ventura County",
		"state": "California",
		"state_code": "CA",
		"male": "419588",
		"female": "428524",
		"median_age": "37.9",
		"population": "848112",
		"female_percentage": "50.52681721282095",
		"lat": "34.45650805886403",
		"long": "-119.08363317379286"
	},
	{
		"fips": "6113",
		"county": "Yolo County",
		"state": "California",
		"state_code": "CA",
		"male": "104375",
		"female": "110602",
		"median_age": "31",
		"population": "214977",
		"female_percentage": "51.44829446871061",
		"lat": "38.686619234357615",
		"long": "-121.90156981492919"
	},
	{
		"fips": "6115",
		"county": "Yuba County",
		"state": "California",
		"state_code": "CA",
		"male": "38468",
		"female": "37025",
		"median_age": "32.5",
		"population": "75493",
		"female_percentage": "49.04428225133456",
		"lat": "39.26900718329727",
		"long": "-121.35126426312779"
	},
	{
		"fips": "8001",
		"county": "Adams County",
		"state": "Colorado",
		"state_code": "CO",
		"male": "250704",
		"female": "246411",
		"median_age": "33.6",
		"population": "497115",
		"female_percentage": "49.568208563410884",
		"lat": "39.873630839333046",
		"long": "-104.33776871204665"
	},
	{
		"fips": "8003",
		"county": "Alamosa County",
		"state": "Colorado",
		"state_code": "CO",
		"male": "8242",
		"female": "8202",
		"median_age": "30.4",
		"population": "16444",
		"female_percentage": "49.87837509121868",
		"lat": "37.5729353487017",
		"long": "-105.78836680671557"
	},
	{
		"fips": "8005",
		"county": "Arapahoe County",
		"state": "Colorado",
		"state_code": "CO",
		"male": "314672",
		"female": "321999",
		"median_age": "36.5",
		"population": "636671",
		"female_percentage": "50.57541493173083",
		"lat": "39.649756848133705",
		"long": "-104.33922984176847"
	},
	{
		"fips": "8007",
		"county": "Archuleta County",
		"state": "Colorado",
		"state_code": "CO",
		"male": "6546",
		"female": "6362",
		"median_age": "50.6",
		"population": "12908",
		"female_percentage": "49.2872637124264",
		"lat": "37.19353673333712",
		"long": "-107.04828747952928"
	},
	{
		"fips": "8009",
		"county": "Baca County",
		"state": "Colorado",
		"state_code": "CO",
		"male": "1755",
		"female": "1808",
		"median_age": "47.7",
		"population": "3563",
		"female_percentage": "50.74375526241931",
		"lat": "37.31919022603764",
		"long": "-102.56037464026164"
	},
	{
		"fips": "8011",
		"county": "Bent County",
		"state": "Colorado",
		"state_code": "CO",
		"male": "3790",
		"female": "2019",
		"median_age": "41",
		"population": "5809",
		"female_percentage": "34.75641246341883",
		"lat": "37.955075948238985",
		"long": "-103.0717096507405"
	},
	{
		"fips": "8013",
		"county": "Boulder County",
		"state": "Colorado",
		"state_code": "CO",
		"male": "161355",
		"female": "159675",
		"median_age": "36.2",
		"population": "321030",
		"female_percentage": "49.738342211008316",
		"lat": "40.09248855232531",
		"long": "-105.35772961262155"
	},
	{
		"fips": "8014",
		"county": "Broomfield County",
		"state": "Colorado",
		"state_code": "CO",
		"male": "32789",
		"female": "33331",
		"median_age": "37.7",
		"population": "66120",
		"female_percentage": "50.409860859044166",
		"lat": "39.95410591821095",
		"long": "-105.05271057431746"
	},
	{
		"fips": "8015",
		"county": "Chaffee County",
		"state": "Colorado",
		"state_code": "CO",
		"male": "10268",
		"female": "8896",
		"median_age": "49.1",
		"population": "19164",
		"female_percentage": "46.42037152995199",
		"lat": "38.74701250608263",
		"long": "-106.19412663972602"
	},
	{
		"fips": "8017",
		"county": "Cheyenne County",
		"state": "Colorado",
		"state_code": "CO",
		"male": "964",
		"female": "1075",
		"median_age": "35.9",
		"population": "2039",
		"female_percentage": "52.721922511034826",
		"lat": "38.827951871795065",
		"long": "-102.60350795085606"
	},
	{
		"fips": "8019",
		"county": "Clear Creek County",
		"state": "Colorado",
		"state_code": "CO",
		"male": "4816",
		"female": "4563",
		"median_age": "47.8",
		"population": "9379",
		"female_percentage": "48.651242136688346",
		"lat": "39.6891797331411",
		"long": "-105.64440226875996"
	},
	{
		"fips": "8021",
		"county": "Conejos County",
		"state": "Colorado",
		"state_code": "CO",
		"male": "4082",
		"female": "4060",
		"median_age": "39.4",
		"population": "8142",
		"female_percentage": "49.864898059444855",
		"lat": "37.20071264341812",
		"long": "-106.19161031666879"
	},
	{
		"fips": "8023",
		"county": "Costilla County",
		"state": "Colorado",
		"state_code": "CO",
		"male": "1941",
		"female": "1746",
		"median_age": "51.3",
		"population": "3687",
		"female_percentage": "47.35557363710334",
		"lat": "37.27812432039779",
		"long": "-105.42823538375183"
	},
	{
		"fips": "8025",
		"county": "Crowley County",
		"state": "Colorado",
		"state_code": "CO",
		"male": "3526",
		"female": "2104",
		"median_age": "35.6",
		"population": "5630",
		"female_percentage": "37.37122557726465",
		"lat": "38.32658632505793",
		"long": "-103.7844708388175"
	},
	{
		"fips": "8027",
		"county": "Custer County",
		"state": "Colorado",
		"state_code": "CO",
		"male": "2265",
		"female": "2375",
		"median_age": "58.4",
		"population": "4640",
		"female_percentage": "51.185344827586206",
		"lat": "38.10869122641281",
		"long": "-105.36752805339286"
	},
	{
		"fips": "8029",
		"county": "Delta County",
		"state": "Colorado",
		"state_code": "CO",
		"male": "15235",
		"female": "15111",
		"median_age": "47.6",
		"population": "30346",
		"female_percentage": "49.7956897119884",
		"lat": "38.861359153761576",
		"long": "-107.8628891582186"
	},
	{
		"fips": "8031",
		"county": "Denver County",
		"state": "Colorado",
		"state_code": "CO",
		"male": "347188",
		"female": "346229",
		"median_age": "34.4",
		"population": "693417",
		"female_percentage": "49.93084969073443",
		"lat": "39.76213212154716",
		"long": "-104.87586982840838"
	},
	{
		"fips": "8033",
		"county": "Dolores County",
		"state": "Colorado",
		"state_code": "CO",
		"male": "989",
		"female": "852",
		"median_age": "51.8",
		"population": "1841",
		"female_percentage": "46.27919608908202",
		"lat": "37.75171175752354",
		"long": "-108.51740031607223"
	},
	{
		"fips": "8035",
		"county": "Douglas County",
		"state": "Colorado",
		"state_code": "CO",
		"male": "163766",
		"female": "164848",
		"median_age": "38.4",
		"population": "328614",
		"female_percentage": "50.164630843482016",
		"lat": "39.329708202699145",
		"long": "-104.92955933206845"
	},
	{
		"fips": "8037",
		"county": "Eagle County",
		"state": "Colorado",
		"state_code": "CO",
		"male": "28804",
		"female": "25553",
		"median_age": "36.5",
		"population": "54357",
		"female_percentage": "47.00958478208878",
		"lat": "39.62784556293205",
		"long": "-106.69536644502288"
	},
	{
		"fips": "8039",
		"county": "Elbert County",
		"state": "Colorado",
		"state_code": "CO",
		"male": "12721",
		"female": "12441",
		"median_age": "46.1",
		"population": "25162",
		"female_percentage": "49.44360543676973",
		"lat": "39.28658339787681",
		"long": "-104.13594296760509"
	},
	{
		"fips": "8041",
		"county": "El Paso County",
		"state": "Colorado",
		"state_code": "CO",
		"male": "347478",
		"female": "340675",
		"median_age": "34.1",
		"population": "688153",
		"female_percentage": "49.505705853204155",
		"lat": "38.832103441396725",
		"long": "-104.52546027890772"
	},
	{
		"fips": "8043",
		"county": "Fremont County",
		"state": "Colorado",
		"state_code": "CO",
		"male": "27324",
		"female": "19678",
		"median_age": "44.9",
		"population": "47002",
		"female_percentage": "41.86630356155057",
		"lat": "38.472958147130306",
		"long": "-105.43965821655789"
	},
	{
		"fips": "8045",
		"county": "Garfield County",
		"state": "Colorado",
		"state_code": "CO",
		"male": "29779",
		"female": "28759",
		"median_age": "36.3",
		"population": "58538",
		"female_percentage": "49.12877105469951",
		"lat": "39.599315365500594",
		"long": "-107.9040311803862"
	},
	{
		"fips": "8047",
		"county": "Gilpin County",
		"state": "Colorado",
		"state_code": "CO",
		"male": "3169",
		"female": "2755",
		"median_age": "45.7",
		"population": "5924",
		"female_percentage": "46.50573936529372",
		"lat": "39.85756210255269",
		"long": "-105.5225160966723"
	},
	{
		"fips": "8049",
		"county": "Grand County",
		"state": "Colorado",
		"state_code": "CO",
		"male": "8129",
		"female": "6937",
		"median_age": "43.5",
		"population": "15066",
		"female_percentage": "46.044072746581705",
		"lat": "40.10263076536024",
		"long": "-106.11833045965344"
	},
	{
		"fips": "8051",
		"county": "Gunnison County",
		"state": "Colorado",
		"state_code": "CO",
		"male": "8983",
		"female": "7554",
		"median_age": "34.5",
		"population": "16537",
		"female_percentage": "45.67938562012457",
		"lat": "38.666765447186044",
		"long": "-107.03162238964327"
	},
	{
		"fips": "8053",
		"county": "Hinsdale County",
		"state": "Colorado",
		"state_code": "CO",
		"male": "406",
		"female": "472",
		"median_age": "57.5",
		"population": "878",
		"female_percentage": "53.75854214123007",
		"lat": "37.82128480331484",
		"long": "-107.30030190882668"
	},
	{
		"fips": "8055",
		"county": "Huerfano County",
		"state": "Colorado",
		"state_code": "CO",
		"male": "3305",
		"female": "3278",
		"median_age": "55.1",
		"population": "6583",
		"female_percentage": "49.794926325383564",
		"lat": "37.684678509644954",
		"long": "-104.96061132482524"
	},
	{
		"fips": "8057",
		"county": "Jackson County",
		"state": "Colorado",
		"state_code": "CO",
		"male": "631",
		"female": "665",
		"median_age": "50.9",
		"population": "1296",
		"female_percentage": "51.31172839506173",
		"lat": "40.66644567596359",
		"long": "-106.3427900482807"
	},
	{
		"fips": "8059",
		"county": "Jefferson County",
		"state": "Colorado",
		"state_code": "CO",
		"male": "283919",
		"female": "286508",
		"median_age": "40.4",
		"population": "570427",
		"female_percentage": "50.226935260778326",
		"lat": "39.58643529411338",
		"long": "-105.2504690358315"
	},
	{
		"fips": "8061",
		"county": "Kiowa County",
		"state": "Colorado",
		"state_code": "CO",
		"male": "750",
		"female": "699",
		"median_age": "40.4",
		"population": "1449",
		"female_percentage": "48.24016563146998",
		"lat": "38.4326686727227",
		"long": "-102.7402902792028"
	},
	{
		"fips": "8063",
		"county": "Kit Carson County",
		"state": "Colorado",
		"state_code": "CO",
		"male": "4158",
		"female": "3477",
		"median_age": "38.5",
		"population": "7635",
		"female_percentage": "45.54027504911591",
		"lat": "39.30549435244091",
		"long": "-102.60294572338047"
	},
	{
		"fips": "8065",
		"county": "Lake County",
		"state": "Colorado",
		"state_code": "CO",
		"male": "4176",
		"female": "3409",
		"median_age": "37.8",
		"population": "7585",
		"female_percentage": "44.943968358602504",
		"lat": "39.202480132337485",
		"long": "-106.34478011552613"
	},
	{
		"fips": "8067",
		"county": "La Plata County",
		"state": "Colorado",
		"state_code": "CO",
		"male": "27790",
		"female": "27311",
		"median_age": "39.9",
		"population": "55101",
		"female_percentage": "49.56534364167619",
		"lat": "37.28655413856314",
		"long": "-107.84332957991037"
	},
	{
		"fips": "8069",
		"county": "Larimer County",
		"state": "Colorado",
		"state_code": "CO",
		"male": "168615",
		"female": "169546",
		"median_age": "35.9",
		"population": "338161",
		"female_percentage": "50.137656323467226",
		"lat": "40.66638617460316",
		"long": "-105.46114554482625"
	},
	{
		"fips": "8071",
		"county": "Las Animas County",
		"state": "Colorado",
		"state_code": "CO",
		"male": "7452",
		"female": "6727",
		"median_age": "46.1",
		"population": "14179",
		"female_percentage": "47.44340221454264",
		"lat": "37.31578855613157",
		"long": "-104.03864231253098"
	},
	{
		"fips": "8073",
		"county": "Lincoln County",
		"state": "Colorado",
		"state_code": "CO",
		"male": "3471",
		"female": "2077",
		"median_age": "37.9",
		"population": "5548",
		"female_percentage": "37.43691420331651",
		"lat": "38.98808784990935",
		"long": "-103.5139430533545"
	},
	{
		"fips": "8075",
		"county": "Logan County",
		"state": "Colorado",
		"state_code": "CO",
		"male": "11708",
		"female": "9981",
		"median_age": "38.4",
		"population": "21689",
		"female_percentage": "46.018719166397716",
		"lat": "40.724672780416576",
		"long": "-103.11012442888726"
	},
	{
		"fips": "8077",
		"county": "Mesa County",
		"state": "Colorado",
		"state_code": "CO",
		"male": "74027",
		"female": "75971",
		"median_age": "39.1",
		"population": "149998",
		"female_percentage": "50.64800864011521",
		"lat": "39.01830152379928",
		"long": "-108.46644236398792"
	},
	{
		"fips": "8079",
		"county": "Mineral County",
		"state": "Colorado",
		"state_code": "CO",
		"male": "402",
		"female": "421",
		"median_age": "58.6",
		"population": "823",
		"female_percentage": "51.1543134872418",
		"lat": "37.66894228649348",
		"long": "-106.92412193366985"
	},
	{
		"fips": "8081",
		"county": "Moffat County",
		"state": "Colorado",
		"state_code": "CO",
		"male": "6698",
		"female": "6362",
		"median_age": "37.8",
		"population": "13060",
		"female_percentage": "48.71362940275651",
		"lat": "40.61839473056184",
		"long": "-108.2074433763401"
	},
	{
		"fips": "8083",
		"county": "Montezuma County",
		"state": "Colorado",
		"state_code": "CO",
		"male": "12760",
		"female": "13149",
		"median_age": "44.4",
		"population": "25909",
		"female_percentage": "50.75070438843645",
		"lat": "37.33856249066213",
		"long": "-108.59657713130177"
	},
	{
		"fips": "8085",
		"county": "Montrose County",
		"state": "Colorado",
		"state_code": "CO",
		"male": "20374",
		"female": "20894",
		"median_age": "45.1",
		"population": "41268",
		"female_percentage": "50.6300281089464",
		"lat": "38.40218300038856",
		"long": "-108.26933795513878"
	},
	{
		"fips": "8087",
		"county": "Morgan County",
		"state": "Colorado",
		"state_code": "CO",
		"male": "14112",
		"female": "14145",
		"median_age": "36.3",
		"population": "28257",
		"female_percentage": "50.058392610680535",
		"lat": "40.26264077234999",
		"long": "-103.8097164777117"
	},
	{
		"fips": "8089",
		"county": "Otero County",
		"state": "Colorado",
		"state_code": "CO",
		"male": "8872",
		"female": "9453",
		"median_age": "40.2",
		"population": "18325",
		"female_percentage": "51.58526603001364",
		"lat": "37.90256806350273",
		"long": "-103.71651192152439"
	},
	{
		"fips": "8091",
		"county": "Ouray County",
		"state": "Colorado",
		"state_code": "CO",
		"male": "2312",
		"female": "2410",
		"median_age": "53",
		"population": "4722",
		"female_percentage": "51.03769589157137",
		"lat": "38.15546514326709",
		"long": "-107.76927130278033"
	},
	{
		"fips": "8093",
		"county": "Park County",
		"state": "Colorado",
		"state_code": "CO",
		"male": "9172",
		"female": "8220",
		"median_age": "50.6",
		"population": "17392",
		"female_percentage": "47.26310947562097",
		"lat": "39.11931309312425",
		"long": "-105.7171098074064"
	},
	{
		"fips": "8095",
		"county": "Phillips County",
		"state": "Colorado",
		"state_code": "CO",
		"male": "2295",
		"female": "2023",
		"median_age": "39",
		"population": "4318",
		"female_percentage": "46.8503937007874",
		"lat": "40.593973317232724",
		"long": "-102.35760124500776"
	},
	{
		"fips": "8097",
		"county": "Pitkin County",
		"state": "Colorado",
		"state_code": "CO",
		"male": "9408",
		"female": "8501",
		"median_age": "42",
		"population": "17909",
		"female_percentage": "47.467753643419506",
		"lat": "39.217085415540176",
		"long": "-106.91659862846625"
	},
	{
		"fips": "8099",
		"county": "Prowers County",
		"state": "Colorado",
		"state_code": "CO",
		"male": "6035",
		"female": "6017",
		"median_age": "38",
		"population": "12052",
		"female_percentage": "49.925323597743116",
		"lat": "37.95519536784376",
		"long": "-102.39335974662974"
	},
	{
		"fips": "8101",
		"county": "Pueblo County",
		"state": "Colorado",
		"state_code": "CO",
		"male": "80962",
		"female": "83723",
		"median_age": "38.9",
		"population": "164685",
		"female_percentage": "50.83826699456539",
		"lat": "38.17352288761175",
		"long": "-104.51273216338602"
	},
	{
		"fips": "8103",
		"county": "Rio Blanco County",
		"state": "Colorado",
		"state_code": "CO",
		"male": "3291",
		"female": "3174",
		"median_age": "35.9",
		"population": "6465",
		"female_percentage": "49.09512761020881",
		"lat": "39.979851278003515",
		"long": "-108.21705233028338"
	},
	{
		"fips": "8105",
		"county": "Rio Grande County",
		"state": "Colorado",
		"state_code": "CO",
		"male": "5696",
		"female": "5655",
		"median_age": "41.5",
		"population": "11351",
		"female_percentage": "49.819399171879134",
		"lat": "37.582519429839316",
		"long": "-106.38322986022477"
	},
	{
		"fips": "8107",
		"county": "Routt County",
		"state": "Colorado",
		"state_code": "CO",
		"male": "12915",
		"female": "11959",
		"median_age": "39.8",
		"population": "24874",
		"female_percentage": "48.07831470611884",
		"lat": "40.48514360967252",
		"long": "-106.99125344979767"
	},
	{
		"fips": "8109",
		"county": "Saguache County",
		"state": "Colorado",
		"state_code": "CO",
		"male": "3182",
		"female": "3286",
		"median_age": "49.1",
		"population": "6468",
		"female_percentage": "50.80395794681509",
		"lat": "38.080526607508375",
		"long": "-106.28150636095563"
	},
	{
		"fips": "8111",
		"county": "San Juan County",
		"state": "Colorado",
		"state_code": "CO",
		"male": "283",
		"female": "261",
		"median_age": "52.1",
		"population": "544",
		"female_percentage": "47.97794117647059",
		"lat": "37.76402849680549",
		"long": "-107.67615655284592"
	},
	{
		"fips": "8113",
		"county": "San Miguel County",
		"state": "Colorado",
		"state_code": "CO",
		"male": "4215",
		"female": "3753",
		"median_age": "41.5",
		"population": "7968",
		"female_percentage": "47.10090361445783",
		"lat": "38.003765232828215",
		"long": "-108.40572790845548"
	},
	{
		"fips": "8115",
		"county": "Sedgwick County",
		"state": "Colorado",
		"state_code": "CO",
		"male": "1162",
		"female": "1188",
		"median_age": "49.1",
		"population": "2350",
		"female_percentage": "50.5531914893617",
		"lat": "40.87591672040057",
		"long": "-102.3518248298754"
	},
	{
		"fips": "8117",
		"county": "Summit County",
		"state": "Colorado",
		"state_code": "CO",
		"male": "16684",
		"female": "13745",
		"median_age": "39.1",
		"population": "30429",
		"female_percentage": "45.1707252949489",
		"lat": "39.63418029894818",
		"long": "-106.11636795482261"
	},
	{
		"fips": "8119",
		"county": "Teller County",
		"state": "Colorado",
		"state_code": "CO",
		"male": "12157",
		"female": "11956",
		"median_age": "49.9",
		"population": "24113",
		"female_percentage": "49.58321237506739",
		"lat": "38.88215682972448",
		"long": "-105.16177889481384"
	},
	{
		"fips": "8121",
		"county": "Washington County",
		"state": "Colorado",
		"state_code": "CO",
		"male": "2510",
		"female": "2330",
		"median_age": "41.6",
		"population": "4840",
		"female_percentage": "48.14049586776859",
		"lat": "39.971017521558714",
		"long": "-103.2012456043598"
	},
	{
		"fips": "8123",
		"county": "Weld County",
		"state": "Colorado",
		"state_code": "CO",
		"male": "148627",
		"female": "146496",
		"median_age": "34.3",
		"population": "295123",
		"female_percentage": "49.63896409293752",
		"lat": "40.55483428651926",
		"long": "-104.39246146555715"
	},
	{
		"fips": "8125",
		"county": "Yuma County",
		"state": "Colorado",
		"state_code": "CO",
		"male": "5019",
		"female": "5050",
		"median_age": "38.4",
		"population": "10069",
		"female_percentage": "50.153937828980034",
		"lat": "40.00293654623667",
		"long": "-102.42424849126851"
	},
	{
		"fips": "9001",
		"county": "Fairfield County",
		"state": "Connecticut",
		"state_code": "CT",
		"male": "459963",
		"female": "484385",
		"median_age": "40.3",
		"population": "944348",
		"female_percentage": "51.29306145615811",
		"lat": "41.270795181142404",
		"long": "-73.38938077097022"
	},
	{
		"fips": "9003",
		"county": "Hartford County",
		"state": "Connecticut",
		"state_code": "CT",
		"male": "434650",
		"female": "460080",
		"median_age": "40.4",
		"population": "894730",
		"female_percentage": "51.42109910252255",
		"lat": "41.806405916901966",
		"long": "-72.73287268847098"
	},
	{
		"fips": "9005",
		"county": "Litchfield County",
		"state": "Connecticut",
		"state_code": "CT",
		"male": "90447",
		"female": "92584",
		"median_age": "47.2",
		"population": "183031",
		"female_percentage": "50.58378088957608",
		"lat": "41.79248072795551",
		"long": "-73.24533246375512"
	},
	{
		"fips": "9007",
		"county": "Middlesex County",
		"state": "Connecticut",
		"state_code": "CT",
		"male": "79676",
		"female": "83692",
		"median_age": "45.4",
		"population": "163368",
		"female_percentage": "51.22912687919299",
		"lat": "41.46318766657876",
		"long": "-72.53514427955896"
	},
	{
		"fips": "9009",
		"county": "New Haven County",
		"state": "Connecticut",
		"state_code": "CT",
		"male": "414311",
		"female": "445028",
		"median_age": "40.1",
		"population": "859339",
		"female_percentage": "51.78724577844134",
		"lat": "41.41047804821459",
		"long": "-72.93207761888479"
	},
	{
		"fips": "9011",
		"county": "New London County",
		"state": "Connecticut",
		"state_code": "CT",
		"male": "134703",
		"female": "134178",
		"median_age": "41.4",
		"population": "268881",
		"female_percentage": "49.90237316879958",
		"lat": "41.48661392494676",
		"long": "-72.10147371348693"
	},
	{
		"fips": "9013",
		"county": "Tolland County",
		"state": "Connecticut",
		"state_code": "CT",
		"male": "75821",
		"female": "75448",
		"median_age": "37.5",
		"population": "151269",
		"female_percentage": "49.876709702582815",
		"lat": "41.85504180401762",
		"long": "-72.33647701640963"
	},
	{
		"fips": "9015",
		"county": "Windham County",
		"state": "Connecticut",
		"state_code": "CT",
		"male": "57560",
		"female": "58978",
		"median_age": "41.3",
		"population": "116538",
		"female_percentage": "50.60838524773036",
		"lat": "41.830019602874",
		"long": "-71.9874389810461"
	},
	{
		"fips": "10001",
		"county": "Kent County",
		"state": "Delaware",
		"state_code": "DE",
		"male": "84271",
		"female": "90551",
		"median_age": "37.6",
		"population": "174822",
		"female_percentage": "51.79611261740513",
		"lat": "39.086168928232766",
		"long": "-75.56842231599367"
	},
	{
		"fips": "10003",
		"county": "New Castle County",
		"state": "Delaware",
		"state_code": "DE",
		"male": "268870",
		"female": "286263",
		"median_age": "38.1",
		"population": "555133",
		"female_percentage": "51.56656152669721",
		"lat": "39.57683343664609",
		"long": "-75.65269158568691"
	},
	{
		"fips": "10005",
		"county": "Sussex County",
		"state": "Delaware",
		"state_code": "DE",
		"male": "106429",
		"female": "113111",
		"median_age": "49",
		"population": "219540",
		"female_percentage": "51.52181834745376",
		"lat": "38.660552929902394",
		"long": "-75.39003806326262"
	},
	{
		"fips": "11001",
		"county": "District of Columbia",
		"state": "District of Columbia",
		"state_code": "NA",
		"male": "324881",
		"female": "359617",
		"median_age": "33.9",
		"population": "684498",
		"female_percentage": "52.5373339293906",
		"lat": "38.904733935498726",
		"long": "-77.01629383836658"
	},
	{
		"fips": "12001",
		"county": "Alachua County",
		"state": "Florida",
		"state_code": "FL",
		"male": "127298",
		"female": "135850",
		"median_age": "31.3",
		"population": "263148",
		"female_percentage": "51.62494109778528",
		"lat": "29.67474971890421",
		"long": "-82.3577136804271"
	},
	{
		"fips": "12003",
		"county": "Baker County",
		"state": "Florida",
		"state_code": "FL",
		"male": "14753",
		"female": "13032",
		"median_age": "37.6",
		"population": "27785",
		"female_percentage": "46.90300521864315",
		"lat": "30.331097919902273",
		"long": "-82.28462852125189"
	},
	{
		"fips": "12005",
		"county": "Bay County",
		"state": "Florida",
		"state_code": "FL",
		"male": "90768",
		"female": "91714",
		"median_age": "39.4",
		"population": "182482",
		"female_percentage": "50.25920364748304",
		"lat": "30.26521548612463",
		"long": "-85.62024281873268"
	},
	{
		"fips": "12007",
		"county": "Bradford County",
		"state": "Florida",
		"state_code": "FL",
		"male": "14841",
		"female": "12138",
		"median_age": "40.1",
		"population": "26979",
		"female_percentage": "44.99054820415879",
		"lat": "29.949948760193077",
		"long": "-82.16876766874358"
	},
	{
		"fips": "12009",
		"county": "Brevard County",
		"state": "Florida",
		"state_code": "FL",
		"male": "282023",
		"female": "294785",
		"median_age": "47.2",
		"population": "576808",
		"female_percentage": "51.106260662126736",
		"lat": "28.293721855653967",
		"long": "-80.73227050221601"
	},
	{
		"fips": "12011",
		"county": "Broward County",
		"state": "Florida",
		"state_code": "FL",
		"male": "929712",
		"female": "979439",
		"median_age": "40.1",
		"population": "1909151",
		"female_percentage": "51.302332817048004",
		"lat": "26.152322379181037",
		"long": "-80.48712563481989"
	},
	{
		"fips": "12013",
		"county": "Calhoun County",
		"state": "Florida",
		"state_code": "FL",
		"male": "8048",
		"female": "6396",
		"median_age": "40.2",
		"population": "14444",
		"female_percentage": "44.281362503461644",
		"lat": "30.406022544054494",
		"long": "-85.19719429272153"
	},
	{
		"fips": "12015",
		"county": "Charlotte County",
		"state": "Florida",
		"state_code": "FL",
		"male": "86278",
		"female": "90676",
		"median_age": "58.6",
		"population": "176954",
		"female_percentage": "51.24269584185721",
		"lat": "26.90548521747582",
		"long": "-81.91226117367738"
	},
	{
		"fips": "12017",
		"county": "Citrus County",
		"state": "Florida",
		"state_code": "FL",
		"male": "69376",
		"female": "73711",
		"median_age": "56.2",
		"population": "143087",
		"female_percentage": "51.51481266641973",
		"lat": "28.848910853746613",
		"long": "-82.47939451581993"
	},
	{
		"fips": "12019",
		"county": "Clay County",
		"state": "Florida",
		"state_code": "FL",
		"male": "102225",
		"female": "105066",
		"median_age": "39.5",
		"population": "207291",
		"female_percentage": "50.685268535537",
		"lat": "29.983063357912926",
		"long": "-81.85787749603033"
	},
	{
		"fips": "12021",
		"county": "Collier County",
		"state": "Florida",
		"state_code": "FL",
		"male": "179336",
		"female": "184586",
		"median_age": "50.3",
		"population": "363922",
		"female_percentage": "50.72130841224218",
		"lat": "26.110715650069544",
		"long": "-81.34757344148187"
	},
	{
		"fips": "12023",
		"county": "Columbia County",
		"state": "Florida",
		"state_code": "FL",
		"male": "35683",
		"female": "33422",
		"median_age": "40.7",
		"population": "69105",
		"female_percentage": "48.364083640836405",
		"lat": "30.22424804587699",
		"long": "-82.6215392879257"
	},
	{
		"fips": "12027",
		"county": "DeSoto County",
		"state": "Florida",
		"state_code": "FL",
		"male": "20657",
		"female": "15742",
		"median_age": "40.6",
		"population": "36399",
		"female_percentage": "43.24844089123327",
		"lat": "27.18636318151619",
		"long": "-81.8095044842232"
	},
	{
		"fips": "12029",
		"county": "Dixie County",
		"state": "Florida",
		"state_code": "FL",
		"male": "9218",
		"female": "7219",
		"median_age": "47.3",
		"population": "16437",
		"female_percentage": "43.91920666788343",
		"lat": "29.608191599772557",
		"long": "-83.1588003681835"
	},
	{
		"fips": "12031",
		"county": "Duval County",
		"state": "Florida",
		"state_code": "FL",
		"male": "448163",
		"female": "476066",
		"median_age": "36.1",
		"population": "924229",
		"female_percentage": "51.509528482659604",
		"lat": "30.33157316078935",
		"long": "-81.67084283244348"
	},
	{
		"fips": "12033",
		"county": "Escambia County",
		"state": "Florida",
		"state_code": "FL",
		"male": "154520",
		"female": "157002",
		"median_age": "37.2",
		"population": "311522",
		"female_percentage": "50.39836672851356",
		"lat": "30.66892673365146",
		"long": "-87.36278300432998"
	},
	{
		"fips": "12035",
		"county": "Flagler County",
		"state": "Florida",
		"state_code": "FL",
		"male": "51187",
		"female": "55952",
		"median_age": "50.9",
		"population": "107139",
		"female_percentage": "52.22374672154865",
		"lat": "29.461424845918263",
		"long": "-81.31356839145538"
	},
	{
		"fips": "12037",
		"county": "Franklin County",
		"state": "Florida",
		"state_code": "FL",
		"male": "6714",
		"female": "5022",
		"median_age": "45",
		"population": "11736",
		"female_percentage": "42.79141104294479",
		"lat": "29.876464717759767",
		"long": "-84.81402385488366"
	},